Request ID,Location Name,Landmark,Request Type,Request Status,Evaluation Status,Funding Status,Evaluation Rank,Evaluation Score,Ranking Month,Ranking Year,Primary St Block,Primary St Prefix Direction,Primary St,Cross St Block,Cross St Prefix,Cross St,Evaluation ID,Location,Request Note,Location Latitude,Location Longitude
REQ14-000035,RIVER PLACE BLVD / RIVER PLACE BLVD,,TRAFFIC,UNDER EVALUATION,COMPLETED,None Identified,23,65,DEC,2014,6500,,RIVER PLACE BLVD,6200,,RIVER PLACE BLVD,TVL14-001075,"(30.3915071, -97.8477466)",,30.3915071,-97.8477466
REQ14-000070,AVERY RANCH BLVD / QUARRY OAKS TRL,,TRAFFIC,UNDER EVALUATION,IN PROGRESS,None Identified,71,100,DEC,2017,14000,,AVERY RANCH BLVD,10700,,QUARRY OAKS TRL,TVL17-003995,"(30.4957876, -97.7842796)",,30.4957876,-97.7842796
REQ14-000075,ANDERSON LN / ANDERSON SQ,,TRAFFIC,UNDER EVALUATION,COMPLETED,None Identified,17,139,DEC,2014,1200,W,ANDERSON LN,7900,,ANDERSON SQ,TVL14-001035,"(30.3497063, -97.7173046)",,30.3497063,-97.7173046
REQ14-000025,8400 BLK N FM 620 RD,,TRAFFIC,UNDER EVALUATION,IN PROGRESS,None Identified,71,100,DEC,2017,8400,N,FM 620 RD,0,,,TVL17-004020,"(30.42473, -97.844064)",,30.42473,-97.844064
REQ14-000080,SOUTHWEST PKWY / BELGRADE DR,,TRAFFIC,UNDER EVALUATION,COMPLETED,None Identified,120,25,DEC,2016,8200,,SOUTHWEST PKWY,5501,,BELGRADE DR,TVL16-002295,"(30.2576194, -97.8818182)",,30.2576194,-97.8818182
REQ14-000110,RIVERSIDE DR / METRO CENTER DR,,TRAFFIC,UNDER EVALUATION,COMPLETED,None Identified,25,165,DEC,2016,7701,E,RIVERSIDE DR,7400,,METRO CENTER DR,TVL16-002315,"(30.2169356, -97.6898713)",,30.2169356,-97.6898713
REQ14-000110,RIVERSIDE DR / METRO CENTER DR,,TRAFFIC,UNDER EVALUATION,IN PROGRESS,None Identified,52,135,DEC,2017,7701,E,RIVERSIDE DR,7400,,METRO CENTER DR,TVL17-003970,"(30.2169356, -97.6898713)",,30.2169356,-97.6898713
REQ14-000125,DESSAU RD / PEARL RETREAT LN,,TRAFFIC,UNDER EVALUATION,IN PROGRESS,Private,4,310,DEC,2017,12542,,DESSAU RD,1700,,PEARL RETREAT LN,TVL17-003965,"(30.392456, -97.645708)",,30.392456,-97.645708
REQ14-000140,SAN ANTONIO ST / 12TH ST,,TRAFFIC,NOT RECOMMENDED,COMPLETED,None Identified,1,360,DEC,2014,1200,,SAN ANTONIO ST,500,W,12TH ST,TVL14-000970,"(30.2751044, -97.7452341)",No criteria warranting a signal were met.,30.2751044,-97.7452341
REQ14-000150,CESAR CHAVEZ ST / PEDERNALES ST,,TRAFFIC,TURNED_ON,COMPLETED,Funded,19,190,JUL,2014,2400,E,CESAR CHAVEZ ST,100,,PEDERNALES ST,TVL14-000960,"(30.2543983, -97.7167587)",,30.2543983,-97.7167587
REQ14-000190,CESAR CHAVEZ ST / TILLERY ST,,TRAFFIC,UNDER EVALUATION,COMPLETED,None Identified,29,150,JUL,2014,3000,E,CESAR CHAVEZ ST,100,,TILLERY ST,TVL14-000920,"(30.2516962, -97.7087877)",,30.2516962,-97.7087877
REQ14-000200,OLTORF ST / BURTON DR,,TRAFFIC,NOT RECOMMENDED,COMPLETED,None Identified,3,340,JUL,2014,1842,E,OLTORF ST,2001,,BURTON DR,TVL14-000910,"(30.2309208, -97.73370293)",Studied for a PHB,30.2309208,-97.73370293
REQ14-000240,LAMAR BLVD / COLLIER ST,,TRAFFIC,STUDY,COMPLETED,None Identified,28,155,JUL,2014,1221,S,LAMAR BLVD,1101,,COLLIER ST,TVL14-000870,"(30.2512131, -97.76513732)",,30.2512131,-97.76513732
REQ14-000240,LAMAR BLVD / COLLIER ST,,TRAFFIC,STUDY,COMPLETED,None Identified,7,215,DEC,2016,1221,S,LAMAR BLVD,1101,,COLLIER ST,TVL16-002360,"(30.2512131, -97.76513732)",,30.2512131,-97.76513732
REQ15-000245,1ST ST / GREAT BRITAIN BLVD,,TRAFFIC,DESIGN,COMPLETED,1/4 Cent,25,66,MAY,2015,8200,S,1ST ST,601,,GREAT BRITAIN BLVD,TVL15-000685,"(30.1793423, -97.7960815)",,30.1793423,-97.7960815
REQ14-000265,SLAUGHTER LN / ROCHELLE DR,,TRAFFIC,UNDER EVALUATION,COMPLETED,None Identified,42,110,JUL,2014,3100,W,SLAUGHTER LN,3027,,ROCHELLE DR,TVL14-000845,"(30.1797325, -97.8418339)",,30.1797325,-97.8418339
REQ14-000275,6TH ST / ROBERT T MARTINEZ JR ST,,TRAFFIC,UNDER EVALUATION,COMPLETED,None Identified,23,170,JUL,2014,1900,E,6TH ST,600,,ROBERT T MARTINEZ JR ST,TVL14-000835,"(30.2602953, -97.7186104)",,30.2602953,-97.7186104
REQ14-001155,OLTORF ST / DURWOOD ST,,PHB,RECOMMENDED,COMPLETED,None Identified,28,470,JUL,2014,500,W,OLTORF ST,2401,,DURWOOD ST,PVL14-000225,"(30.2413483, -97.7579803)",,30.2413483,-97.7579803
REQ14-001180,LAMAR BLVD / MEADOWLARK ST,,PHB,UNDER EVALUATION,IN PROGRESS,None Identified,3,511,DEC,2017,8318,N,LAMAR BLVD,800,,MEADOWLARK ST,PVL17-002280,"(30.3521043, -97.7072939)",,30.3521043,-97.7072939
REQ14-000250,MANOR RD / WALNUT AVE,,TRAFFIC,UNDER EVALUATION,COMPLETED,None Identified,41,141,DEC,2016,2600,,MANOR RD,3100,,WALNUT AVE,TVL16-003325,"(30.2850712, -97.7141833)",,30.2850712,-97.7141833
REQ14-000255,OLTORF ST / WILSON ST,,TRAFFIC,UNDER EVALUATION,IN PROGRESS,None Identified,105,75,DEC,2017,300,W,OLTORF ST,2301,,WILSON ST,TVL17-003935,"(30.2408424, -97.7569603)",,30.2408424,-97.7569603
REQ14-000285,SAN JACINTO BLVD / 17TH ST,,TRAFFIC,UNDER EVALUATION,IN PROGRESS,None Identified,54,131,DEC,2017,1700,,SAN JACINTO BLVD,200,E,17TH ST,TVL17-003910,"(30.2780472, -97.7364433)",,30.2780472,-97.7364433
REQ14-000295,10000 BLK MANCHACA RD (Moontower Saloon),Moontower Saloon,TRAFFIC,UNDER EVALUATION,COMPLETED,None Identified,51,85,JUL,2014,10000,,MANCHACA RD,0,,,TVL14-000815,"(30.168971, -97.825726)",,30.168971,-97.825726
REQ14-000295,10000 BLK MANCHACA RD (Moontower Saloon),Moontower Saloon,TRAFFIC,UNDER EVALUATION,IN PROGRESS,None Identified,86,85,DEC,2017,10000,,MANCHACA RD,0,,,TVL17-003900,"(30.168971, -97.825726)",,30.168971,-97.825726
REQ14-000310,DEATONHILL DR / WEST GATE BLVD,,TRAFFIC,UNDER EVALUATION,COMPLETED,None Identified,53,116,DEC,2016,6600,,DEATONHILL DR,6600,,WEST GATE BLVD,TVL16-002425,"(30.2107857, -97.8145217)",,30.2107857,-97.8145217
REQ14-000310,DEATONHILL DR / WEST GATE BLVD,,TRAFFIC,UNDER EVALUATION,COMPLETED,None Identified,39,117,JUL,2014,6600,,DEATONHILL DR,6600,,WEST GATE BLVD,TVL14-000800,"(30.2107857, -97.8145217)",,30.2107857,-97.8145217
REQ14-000310,DEATONHILL DR / WEST GATE BLVD,,TRAFFIC,UNDER EVALUATION,IN PROGRESS,None Identified,84,86,DEC,2017,6600,,DEATONHILL DR,6600,,WEST GATE BLVD,TVL17-003890,"(30.2107857, -97.8145217)",,30.2107857,-97.8145217
REQ14-000315,FM 969 RD / SENDERO HILLS PKWY,,TRAFFIC,STUDY,COMPLETED,1/4 Cent,14,210,JUL,2014,7000,,FM 969 RD,5200,,SENDERO HILLS PKWY,TVL14-000620,"(30.2807958, -97.6480499)",,30.2807958,-97.6480499
REQ14-000325,MANCHACA RD / MARCUS ABRAMS BLVD,,TRAFFIC,UNDER EVALUATION,IN PROGRESS,None Identified,126,55,DEC,2017,11300,,MANCHACA RD,1700,,MARCUS ABRAMS BLVD,TVL17-003880,"(30.1546726, -97.8333133)",,30.1546726,-97.8333133
REQ14-000330,CONGRESS AVE / LELAND ST (St. Edwards),St. Edwards,TRAFFIC,UNDER EVALUATION,COMPLETED,None Identified,26,164,DEC,2016,2000,S,CONGRESS AVE,100,,LELAND ST,TVL16-002440,"(30.243446, -97.751915)",,30.243446,-97.751915
REQ14-000335,WEST GATE BLVD / BERKELEY AVE,,TRAFFIC,UNDER EVALUATION,COMPLETED,None Identified,23,170,JUL,2014,6705,,WEST GATE BLVD,2615,,BERKELEY AVE,TVL14-000775,"(30.208757, -97.8143408)",,30.208757,-97.8143408
REQ14-000360,THAXTON RD / PANADERO DR,,TRAFFIC,UNDER EVALUATION,IN PROGRESS,None Identified,67,106,DEC,2017,7900,,THAXTON RD,8201,,PANADERO DR,TVL17-003850,"(30.1576965, -97.7436129)",,30.1576965,-97.7436129
REQ14-000365,LAMAR BLVD / BANYON ST,,TRAFFIC,UNDER EVALUATION,COMPLETED,None Identified,65,107,DEC,2016,7500,N,LAMAR BLVD,801,,BANYON ST,TVL16-002470,"(30.3423666, -97.715959)",,30.3423666,-97.715959
REQ16-000430,PLEASANT VALLEY RD / TURNSTONE DR,,PHB,NOT RECOMMENDED,COMPLETED,1/4 Cent,6,439,MAY,2015,5908,S,PLEASANT VALLEY RD,4800,,TURNSTONE DR,PVL16-000055,,PHB being installed at Village Square,30.1848952,-97.7450029
REQ14-000365,LAMAR BLVD / BANYON ST,,TRAFFIC,UNDER EVALUATION,COMPLETED,None Identified,43,108,JUL,2014,7500,N,LAMAR BLVD,801,,BANYON ST,TVL14-000745,"(30.3423666, -97.715959)",,30.3423666,-97.715959
REQ14-000365,LAMAR BLVD / BANYON ST,,TRAFFIC,UNDER EVALUATION,IN PROGRESS,None Identified,66,107,DEC,2017,7500,N,LAMAR BLVD,801,,BANYON ST,TVL17-003845,"(30.3423666, -97.715959)",,30.3423666,-97.715959
REQ14-000395,119 BLK N LAMAR BLVD,,TRAFFIC,UNDER EVALUATION,IN PROGRESS,None Identified,131,52,DEC,2017,119,N,LAMAR BLVD,0,,,TVL17-003825,"(30.267722, -97.755729)",,30.267722,-97.755729
17-002750,BERKMAN DR / ZACH SCOTT ST,,PHB,RECENTLY RECEIVED,IN PROGRESS,None Identified,1,0,DEC,2018,4200,,BERKMAN DR,2300,,ZACH SCOTT ST,PVL17-002400,"(30.294314, -97.700154)",,30.294314,-97.700154
REQ16-000870,HOWARD LN / HARRISGLENN DR,,TRAFFIC,UNDER EVALUATION,COMPLETED,None Identified,20,80,MAY,2016,1113,E,HOWARD LN,13300,,HARRISGLENN DR,TVL16-000240,"(30.4062557, -97.64217936)",,30.4062557,-97.64217936
REQ14-000180,RUNDBERG LN / HUNTERS TRCE,,TRAFFIC,UNDER EVALUATION,IN PROGRESS,None Identified,59,115,DEC,2017,1504,W,RUNDBERG LN,9400,,HUNTERS TRCE,TVL17-003955,"(30.3689358, -97.7097916)",,30.3689358,-97.7097916
REQ14-000225,FM 969 RD / NIXON LN,,TRAFFIC,UNDER EVALUATION,COMPLETED,None Identified,42,140,DEC,2016,7600,,FM 969 RD,4100,,NIXON LN,TVL16-002350,"(30.2799196, -97.6455229)",,30.2799196,-97.6455229
REQ14-000225,FM 969 RD / NIXON LN,,TRAFFIC,UNDER EVALUATION,IN PROGRESS,None Identified,61,110,DEC,2017,7600,,FM 969 RD,4100,,NIXON LN,TVL17-003940,"(30.2799196, -97.6455229)",,30.2799196,-97.6455229
REQ14-000230,FM 2222 RD / MOUNT BONNELL RD,,TRAFFIC,TURNED_ON,COMPLETED,Safety,35,140,JUL,2014,4600,,FM 2222 RD,5600,,MOUNT BONNELL RD,TVL14-000880,"(30.341, -97.779)",Turned on 02/21/2017,30.341,-97.779
REQ14-000405,11700 BLK N LAMAR BLVD,,TRAFFIC,UNDER EVALUATION,COMPLETED,None Identified,119,27,DEC,2016,11700,N,LAMAR BLVD,0,,,TVL16-002505,"(30.3877257, -97.6841092)",,30.3877257,-97.6841092
REQ14-000485,PARKCREST DR / BALCONES DR,,TRAFFIC,STUDY,COMPLETED,None Identified,13,212,JUL,2014,5400,,PARKCREST DR,5212,,BALCONES DR,TVL14-000625,"(30.3354359, -97.75877021)",,30.3354359,-97.75877021
REQ15-000510,WEST GATE BLVD / BLARWOOD DR,,TRAFFIC,UNDER EVALUATION,IN PROGRESS,None Identified,94,81,DEC,2017,6016,,WEST GATE BLVD,6101,,BLARWOOD DR,TVL17-003775,"(30.2166413, -97.8116231)",,30.2166413,-97.8116231
REQ15-000525,MARTIN LUTHER KING JR BLVD / TILLERY ST,,TRAFFIC,NOT RECOMMENDED,COMPLETED,None Identified,1,362,MAY,2015,3200,E,MARTIN LUTHER KING JR BLVD,1900,,TILLERY ST,TVL15-000585,"(30.2828748, -97.7017294)",Traffic signal recommended at this location but conflicts with existing utilities prohibit the installation of a signal at this time.,30.2828748,-97.7017294
REQ15-000540,AVERY RANCH BLVD / NORTH CANOA HILLS TRL,,TRAFFIC,UNDER EVALUATION,IN PROGRESS,None Identified,61,110,DEC,2017,14400,,AVERY RANCH BLVD,10700,,NORTH CANOA HILLS TRL,TVL17-003765,"(30.4967387, -97.7817699)",,30.4967387,-97.7817699
REQ15-000550,LAMAR BLVD / DICKSON DR,,PHB,DESIGN,COMPLETED,1/4 Cent,1,509,JUL,2015,2600,S,LAMAR BLVD,2001,,DICKSON DR,PVL15-000315,"(30.2453482, -97.7799133)",,30.2453482,-97.7799133
REQ15-000690,RIVERSIDE DR / VARGAS RD,,TRAFFIC,STUDY,COMPLETED,None Identified,10,227,DEC,2015,6300,E,RIVERSIDE DR,1801,,VARGAS RD,TVL15-000495,"(30.2239684, -97.7011655)",,30.2239684,-97.7011655
REQ14-000495,BURNET RD / 47TH ST (Near TX School for the Blind),Near TX School for the Blind,PHB,DESIGN,IN PROGRESS,1/4 Cent,41,424,JUL,2014,4700,,BURNET RD,1401,W,47TH ST,PVL14-000310,"(30.3179977, -97.7399207)",Near the Tx School for the Blind,30.3179977,-97.7399207
REQ15-000580,LOYOLA LN / SENDERO HILLS PKWY,,TRAFFIC,UNDER EVALUATION,COMPLETED,None Identified,88,80,DEC,2016,7106,,LOYOLA LN,6500,,SENDERO HILLS PKWY,TVL16-002580,"(30.2975818, -97.6408876)",,30.2975818,-97.6408876
REQ15-000585,DUVAL RD / WHISPERING VALLEY DR,,TRAFFIC,UNDER EVALUATION,COMPLETED,None Identified,16,100,MAY,2015,4400,,DUVAL RD,4400,,WHISPERING VALLEY DR,TVL15-000525,"(30.4125099, -97.7315926)",,30.4125099,-97.7315926
REQ16-001600,"830 BLK W RUNDBERG LN (Little Walnut Creek Library, HEB)","Little Walnut Creek Library, HEB",TRAFFIC,TURNED_ON,COMPLETED,Safety,5,0,,,830,W,RUNDBERG LN,0,,,TVL16-000090,"(30.3636856, -97.6981583)",,30.3636856,-97.6981583
REQ14-001605,RIVERSIDE DR / SUMMIT ST,,PHB,NOT RECOMMENDED,COMPLETED,None Identified,3,505,DEC,2014,1400,E,RIVERSIDE DR,1001,,SUMMIT ST,PVL14-000755,"(30.2464231, -97.7320242)",,30.2464231,-97.7320242
REQ16-001720,1820 BLK W STASSNEY LN (Crocket High School),Crocket High School,PHB,TURNED_ON,COMPLETED,Funded,12,0,,,1820,W,STASSNEY LN,0,,,PVL16-000870,"(30.2148018, -97.7963867)",,30.2148018,-97.7963867
REQ14-000695,MARTIN LUTHER KING JR BLVD / ADRIANE DR,,PHB,NOT RECOMMENDED,COMPLETED,1/4 Cent,51,405,JUL,2014,3900,E,MARTIN LUTHER KING JR BLVD,1806,,ADRIANE DR,PVL14-000480,,Does not meet PHB installation requirements.,30.2844672,-97.6914574
REQ15-000555,5TH ST / PEDERNALES ST,,TRAFFIC,UNDER EVALUATION,COMPLETED,None Identified,93,75,DEC,2016,2300,E,5TH ST,500,,PEDERNALES ST,TVL16-002570,"(30.2579418, -97.7150906)",,30.2579418,-97.7150906
REQ15-000590,1ST ST / COPELAND ST (Texas School for the Deaf),Texas School for the Deaf,TRAFFIC,NOT RECOMMENDED,COMPLETED,None Identified,58,111,DEC,2016,900,S,1ST ST,601,,COPELAND ST,TVL16-002590,"(30.253294, -97.7532196)",Studying for a PHB,30.253294,-97.7532196
REQ15-000590,1ST ST / COPELAND ST (Texas School for the Deaf),Texas School for the Deaf,TRAFFIC,NOT RECOMMENDED,COMPLETED,None Identified,14,111,MAY,2015,900,S,1ST ST,601,,COPELAND ST,TVL15-000520,"(30.253294, -97.7532196)",Studying for a PHB,30.253294,-97.7532196
REQ15-000595,FM 2222 RD / HIGHLAND HILLS CIR,,TRAFFIC,UNDER EVALUATION,COMPLETED,None Identified,98,65,DEC,2016,3552,,FM 2222 RD,5700,,HIGHLAND HILLS CIR,TVL16-002595,"(30.3395348, -97.7593307)",,30.3395348,-97.7593307
REQ15-000600,AVERY RANCH BLVD / DOUBLE EAGLE PASS,,TRAFFIC,UNDER EVALUATION,COMPLETED,None Identified,28,5,MAY,2015,15700,,AVERY RANCH BLVD,10200,,DOUBLE EAGLE PASS,TVL15-000510,"(30.5017547, -97.7568588)",,30.5017547,-97.7568588
REQ15-002030,BURNET RD / ASHDALE DR,,PHB,DESIGN,IN PROGRESS,TAP Grant,,688,DEC,2016,8004,,BURNET RD,2401,,ASHDALE DR,PVL16-001685,"(30.3585956, -97.7301715)",,30.3585956,-97.7301715
REQ16-002035,JOLLYVILLE RD / BELL AVE,,PHB,UNDER EVALUATION,IN PROGRESS,None Identified,110,275,DEC,2017,11640,,JOLLYVILLE RD,11600,,BELL AVE,PVL17-002060,"(30.4188473, -97.7518042)",,30.4188473,-97.7518042
REQ16-002045,8400 BLK CROSS PARK DR,,PHB,UNDER EVALUATION,IN PROGRESS,None Identified,15,436,DEC,2017,8400,,CROSS PARK DR,0,,,PVL17-002055,"(30.340061, -97.676723)",,30.340061,-97.676723
REQ16-002060,35TH ST / OAKMONT BLVD,,PHB,UNDER EVALUATION,IN PROGRESS,None Identified,54,391,DEC,2017,1822,W,35TH ST,3400,,OAKMONT BLVD,PVL17-002105,"(30.3084869, -97.75429847)",,30.3084869,-97.75429847
REQ16-002065,201 BLK W RUNDBERG LN (Barrington ES),Barrington ES,PHB,UNDER EVALUATION,IN PROGRESS,None Identified,23,421,DEC,2017,201,W,RUNDBERG LN,0,,,PVL17-002095,"(30.362618, -97.694422)",,30.362618,-97.694422
REQ16-002105,5TH ST / WEST LYNN ST,,PHB,UNDER EVALUATION,IN PROGRESS,None Identified,11,442,DEC,2017,1600,W,5TH ST,500,,WEST LYNN ST,PVL17-002085,"(30.2737122, -97.76332593)",,30.2737122,-97.76332593
REQ15-000600,AVERY RANCH BLVD / DOUBLE EAGLE PASS,,TRAFFIC,UNDER EVALUATION,IN PROGRESS,None Identified,154,5,DEC,2017,15700,,AVERY RANCH BLVD,10200,,DOUBLE EAGLE PASS,TVL17-003740,"(30.5017547, -97.7568588)",,30.5017547,-97.7568588
REQ15-000650,WHELESS LN / DORCHESTER DR,,TRAFFIC,UNDER EVALUATION,COMPLETED,None Identified,122,15,DEC,2016,2012,,WHELESS LN,6200,,DORCHESTER DR,TVL16-002620,"(30.3130533, -97.6861015)",,30.3130533,-97.6861015
REQ15-000650,WHELESS LN / DORCHESTER DR,,TRAFFIC,UNDER EVALUATION,COMPLETED,None Identified,33,15,DEC,2015,2012,,WHELESS LN,6200,,DORCHESTER DR,TVL15-000385,"(30.3130533, -97.6861015)",,30.3130533,-97.6861015
REQ15-000650,WHELESS LN / DORCHESTER DR,,TRAFFIC,UNDER EVALUATION,IN PROGRESS,None Identified,147,15,DEC,2017,2012,,WHELESS LN,6200,,DORCHESTER DR,TVL17-003730,"(30.3130533, -97.6861015)",,30.3130533,-97.6861015
REQ15-000655,SLAUGHTER LN / ZUNIGA DR,,TRAFFIC,UNDER EVALUATION,COMPLETED,None Identified,104,55,DEC,2016,4500,W,SLAUGHTER LN,9401,,ZUNIGA DR,TVL16-002625,"(30.1965319, -97.8602275)",,30.1965319,-97.8602275
REQ15-000715,BLUEBONNET LN / ANITA DR,,TRAFFIC,UNDER EVALUATION,COMPLETED,None Identified,30,35,DEC,2015,1604,,BLUEBONNET LN,1801,,ANITA DR,TVL15-000470,"(30.2548272, -97.7720312)",,30.2548272,-97.7720312
REQ15-000715,BLUEBONNET LN / ANITA DR,,TRAFFIC,UNDER EVALUATION,IN PROGRESS,None Identified,137,35,DEC,2017,1604,,BLUEBONNET LN,1801,,ANITA DR,TVL17-003710,"(30.2548272, -97.7720312)",,30.2548272,-97.7720312
REQ15-000720,ANDERSON MILL RD / PECAN CREEK PKWY,,TRAFFIC,STUDY,COMPLETED,None Identified,,170,DEC,2016,10706,,ANDERSON MILL RD,11500,,PECAN CREEK PKWY,TVL16-002660,"(30.4469471, -97.81194141)",Being studied for a PHB,30.4469471,-97.81194141
REQ15-000720,ANDERSON MILL RD / PECAN CREEK PKWY,,TRAFFIC,STUDY,COMPLETED,None Identified,16,170,DEC,2015,10706,,ANDERSON MILL RD,11500,,PECAN CREEK PKWY,TVL15-000465,"(30.4469471, -97.81194141)",Being studied for a PHB,30.4469471,-97.81194141
REQ16-000935,LOYOLA LN / COLONY LOOP DR,,TRAFFIC,STUDY,COMPLETED,None Identified,5,268,MAY,2016,6900,,LOYOLA LN,6700,,COLONY LOOP DR,TVL16-000175,"(30.2978017, -97.6416747)",,30.2978017,-97.6416747
REQ14-001475,HARRIS BRANCH PKWY / ST MERRYN RD,,PHB,UNDER EVALUATION,IN PROGRESS,None Identified,104,290,DEC,2017,11216,,HARRIS BRANCH PKWY,11112,,ST MERRYN RD,PVL17-001935,"(30.3473896, -97.6137139)",,30.3473896,-97.6137139
REQ14-001480,WEST GATE BLVD / HIDDEN OAKS DR,,PHB,UNDER EVALUATION,IN PROGRESS,None Identified,116,235,DEC,2017,7209,,WEST GATE BLVD,2605,,HIDDEN OAKS DR,PVL17-001930,"(30.203448, -97.8174736)",,30.203448,-97.8174736
REQ14-000025,8400 BLK N FM 620 RD,,TRAFFIC,UNDER EVALUATION,COMPLETED,None Identified,27,160,DEC,2016,8400,N,FM 620 RD,0,,,TVL16-002255,"(30.42473, -97.844064)",,30.42473,-97.844064
REQ15-000725,ANDERSON LN / MULLEN DR,,TRAFFIC,UNDER EVALUATION,COMPLETED,None Identified,18,153,DEC,2015,1900,W,ANDERSON LN,7800,,MULLEN DR,TVL15-000460,"(30.3538418, -97.72601836)",,30.3538418,-97.72601836
REQ15-000725,ANDERSON LN / MULLEN DR,,TRAFFIC,UNDER EVALUATION,IN PROGRESS,None Identified,40,152,DEC,2017,1900,W,ANDERSON LN,7800,,MULLEN DR,TVL17-003600,"(30.3538418, -97.72601836)",,30.3538418,-97.72601836
REQ15-000745,ST ELMO RD / SOUTH INDUSTRIAL DR,,TRAFFIC,UNDER EVALUATION,COMPLETED,None Identified,31,155,DEC,2016,2023,E,ST ELMO RD,4201,,SOUTH INDUSTRIAL DR,TVL16-003230,"(30.208818, -97.744413)",,30.208818,-97.744413
REQ15-000755,MARTIN LUTHER KING JR BLVD / OLDFORT HILL DR,,TRAFFIC,UNDER EVALUATION,COMPLETED,None Identified,127,6,DEC,2016,5188,E,MARTIN LUTHER KING JR BLVD,4700,,OLDFORT HILL DR,TVL16-003245,"(30.28656, -97.6752189)",,30.28656,-97.6752189
REQ15-000755,MARTIN LUTHER KING JR BLVD / OLDFORT HILL DR,,TRAFFIC,UNDER EVALUATION,COMPLETED,None Identified,35,8,DEC,2015,5188,E,MARTIN LUTHER KING JR BLVD,4700,,OLDFORT HILL DR,TVL15-000430,"(30.28656, -97.6752189)",,30.28656,-97.6752189
REQ15-000770,1ST ST / 1ST ST (Akins High School - Main Entrance),Akins High School - Main Entrance,TRAFFIC,UNDER EVALUATION,COMPLETED,None Identified,12,193,DEC,2016,10700,S,1ST ST,10800,S,1ST ST,TVL16-003240,"(30.149516, -97.80269)",@ Akins HS,30.149516,-97.80269
REQ15-000770,1ST ST / 1ST ST (Akins High School - Main Entrance),Akins High School - Main Entrance,TRAFFIC,UNDER EVALUATION,COMPLETED,None Identified,12,193,DEC,2015,10700,S,1ST ST,10800,S,1ST ST,TVL15-000340,"(30.149516, -97.80269)",@ Akins HS,30.149516,-97.80269
REQ16-000810,WEBBERVILLE RD / TANNEHILL LN,,TRAFFIC,UNDER EVALUATION,IN PROGRESS,None Identified,91,83,DEC,2017,1918,,WEBBERVILLE RD,4414,,TANNEHILL LN,TVL17-003595,"(30.283966, -97.6716326)",,30.283966,-97.6716326
REQ14-000975,1ST ST / PHILCO DR,,PHB,NOT RECOMMENDED,COMPLETED,1/4 Cent,62,362,JUL,2014,4517,S,1ST ST,601,,PHILCO DR,PVL14-000540,,Does not meet PHB installation requirements.,30.218025,-97.7748071
REQ15-000655,SLAUGHTER LN / ZUNIGA DR,,TRAFFIC,UNDER EVALUATION,COMPLETED,None Identified,29,55,DEC,2015,4500,W,SLAUGHTER LN,9401,,ZUNIGA DR,TVL15-000380,"(30.1965319, -97.8602275)",,30.1965319,-97.8602275
REQ15-000710,6TH ST / SAN MARCOS ST,,TRAFFIC,UNDER EVALUATION,COMPLETED,None Identified,55,115,DEC,2016,900,E,6TH ST,600,,SAN MARCOS ST,TVL16-003270,"(30.2651158, -97.7325274)",,30.2651158,-97.7325274
REQ15-000710,6TH ST / SAN MARCOS ST,,TRAFFIC,UNDER EVALUATION,IN PROGRESS,None Identified,24,175,DEC,2017,900,E,6TH ST,600,,SAN MARCOS ST,TVL17-003585,"(30.2651158, -97.7325274)",,30.2651158,-97.7325274
REQ15-000715,BLUEBONNET LN / ANITA DR,,TRAFFIC,UNDER EVALUATION,COMPLETED,None Identified,114,35,DEC,2016,1604,,BLUEBONNET LN,1801,,ANITA DR,TVL16-002655,"(30.2548272, -97.7720312)",,30.2548272,-97.7720312
REQ16-000870,HOWARD LN / HARRISGLENN DR,,TRAFFIC,UNDER EVALUATION,IN PROGRESS,None Identified,97,80,DEC,2017,1113,E,HOWARD LN,13300,,HARRISGLENN DR,TVL17-003665,"(30.4062557, -97.64217936)",,30.4062557,-97.64217936
REQ16-000875,FM 969 RD / REGENCY DR,,TRAFFIC,NOT RECOMMENDED,COMPLETED,None Identified,,130,DEC,2016,6100,,FM 969 RD,5000,,REGENCY DR,TVL16-002780,"(30.28507, -97.661974)",Being studied for a PHB.,30.28507,-97.661974
REQ16-000895,SPRINGDALE RD / LYONS RD,,TRAFFIC,NOT RECOMMENDED,COMPLETED,None Identified,7,224,MAY,2016,900,,SPRINGDALE RD,3600,,LYONS RD,TVL16-000215,"(30.260665, -97.698712)",No criteria warranting a signal were met.,30.260665,-97.698712
REQ16-002325,LAMAR BLVD / GRADY DR,,PHB,UNDER EVALUATION,IN PROGRESS,None Identified,50,395,DEC,2017,10700,N,LAMAR BLVD,701,W,GRADY DR,PVL17-002295,"(30.375898, -97.68976)",,30.375898,-97.68976
REQ14-001070,LAMAR BLVD / HOUSTON ST,,PHB,NOT RECOMMENDED,COMPLETED,1/4 Cent,5,585,JUL,2014,5502,N,LAMAR BLVD,801,,HOUSTON ST,PVL14-000675,,A traffic signal is recommended for this location.  1/4 Cent funding moved to traffic signal.,30.323225,-97.7280807
REQ16-001075,CAMERON RD / WESTHEIMER DR,,PHB,RECOMMENDED,COMPLETED,None Identified,2,519,MAY,2015,7000,,CAMERON RD,1200,,WESTHEIMER DR,PVL16-000060,,,30.3248199,-97.692986
REQ14-001080,ALLANDALE RD / SHOALWOOD AVE,,PHB,NOT RECOMMENDED,COMPLETED,1/4 Cent,10,386,DEC,2014,2300,,ALLANDALE RD,5900,,SHOALWOOD AVE,PVL14-000715,,Does not meet PHB installation requirements.,30.335215,-97.742951
REQ16-001085,MANCHACA RD / GLEN ALLEN,,PHB,UNDER EVALUATION,COMPLETED,None Identified,7,382,MAY,2015,2900,,MANCHACA RD,2001,,GLEN ALLEN,PVL16-000080,,,30.2408524,-97.7821884
REQ16-001085,MANCHACA RD / GLEN ALLEN,,PHB,UNDER EVALUATION,COMPLETED,None Identified,53,382,DEC,2016,2900,,MANCHACA RD,2001,,GLEN ALLEN,PVL16-000150,,,30.2408524,-97.7821884
REQ16-001100,1ST ST / COPELAND ST (Texas School for the Deaf),Texas School for the Deaf,PHB,STUDY,COMPLETED,None Identified,5,451,MAY,2015,900,S,1ST ST,601,,COPELAND ST,PVL16-000115,,,30.253294,-97.7532196
REQ15-001115,1300 BLK E OLTORF ST (Travis High School),Travis High School,PHB,NOT RECOMMENDED,COMPLETED,1/4 Cent,11,444,DEC,2015,1300,E,OLTORF ST,0,,,PVL15-001050,,Physical constraints prevent installation of a PHB.,30.2347375,-97.7427736
REQ14-001130,GUADALUPE ST / 39TH ST,,PHB,NOT RECOMMENDED,COMPLETED,None Identified,17,504,JUL,2014,3900,,GUADALUPE ST,401,W,39TH ST,PVL14-000175,,,30.3040728,-97.737305
REQ14-001135,45TH ST / BENNETT AVE,,PHB,STUDY,COMPLETED,None Identified,18,501,JUL,2014,1000,E,45TH ST,4500,,BENNETT AVE,PVL14-000185,,,30.303949,-97.7178118
REQ14-001140,832 BLK E RUNDBERG LN (Harmony School),Harmony School,PHB,STUDY,COMPLETED,None Identified,25,476,JUL,2014,832,E,RUNDBERG LN,0,,,PVL14-000195,,,30.356631,-97.685318
REQ15-001145,GUADALUPE ST / 28TH ST,,PHB,STUDY,COMPLETED,None Identified,2,500,JUL,2015,2800,,GUADALUPE ST,501,W,28TH ST,PVL15-000205,,,30.2932473,-97.7417613
REQ15-001150,4500 BLK WEST GATE BLVD,,PHB,STUDY,COMPLETED,None Identified,3,495,JUL,2015,4500,,WEST GATE BLVD,0,,,PVL15-000215,,,30.2306123,-97.8007764
REQ14-001160,MANOR RD / WALNUT AVE,,PHB,RECOMMENDED,COMPLETED,None Identified,24,477,JUL,2014,2600,,MANOR RD,3100,,WALNUT AVE,PVL14-000235,,,30.2850712,-97.7141833
REQ14-001165,STASSNEY LN / SALEM WALK DR,,PHB,STUDY,COMPLETED,None Identified,19,491,JUL,2014,808,W,STASSNEY LN,5503,,SALEM WALK DR,PVL14-000245,,,30.2091628,-97.7844049
REQ14-001170,DITTMAR RD / FOREST WOOD RD,,PHB,NOT RECOMMENDED,COMPLETED,None Identified,20,485,JUL,2014,1008,W,DITTMAR RD,7901,,FOREST WOOD RD,PVL14-000255,,,30.1857738,-97.80149
REQ14-001180,LAMAR BLVD / MEADOWLARK ST,,PHB,UNDER EVALUATION,COMPLETED,None Identified,37,434,JUL,2014,8318,N,LAMAR BLVD,800,,MEADOWLARK ST,PVL14-000265,,,30.3521043,-97.7072939
REQ14-001180,LAMAR BLVD / MEADOWLARK ST,,PHB,UNDER EVALUATION,COMPLETED,None Identified,18,436,DEC,2016,8318,N,LAMAR BLVD,800,,MEADOWLARK ST,PVL16-000165,,,30.3521043,-97.7072939
REQ14-001190,6TH ST / SABINE ST,,PHB,STUDY,COMPLETED,None Identified,30,461,JUL,2014,600,E,6TH ST,600,,SABINE ST,PVL14-000285,,,30.2661836,-97.7361797
REQ14-001195,AIRPORT BLVD / GUNTER ST,,PHB,UNDER EVALUATION,COMPLETED,None Identified,33,445,JUL,2014,1137,,AIRPORT BLVD,1136,,GUNTER ST,PVL14-000295,,,30.269581,-97.6967158
REQ14-001195,AIRPORT BLVD / GUNTER ST,,PHB,UNDER EVALUATION,COMPLETED,None Identified,45,395,DEC,2016,1137,,AIRPORT BLVD,1136,,GUNTER ST,PVL16-000170,,,30.269581,-97.6967158
REQ14-001290,MANCHACA RD / EDGEWARE DR,,PHB,UNDER EVALUATION,COMPLETED,None Identified,49,407,JUL,2014,3200,,MANCHACA RD,1901,,EDGEWARE DR,PVL14-000440,,,30.2397255,-97.7823447
REQ14-001210,WEST GATE BLVD / BERKELEY AVE,,PHB,STUDY,COMPLETED,None Identified,28,470,JUL,2014,6705,,WEST GATE BLVD,2615,,BERKELEY AVE,PVL14-000330,,,30.208757,-97.8143408
REQ16-001215,GREYSTONE DR / WEST RIM DR,,PHB,NOT RECOMMENDED,COMPLETED,1/4 Cent,12,0,,,4206,,GREYSTONE DR,7500,,WEST RIM DR,PVL16-001225,,Does not meet PHB installation requirements.,30.36723,-97.76843
REQ14-001220,LAMAR BLVD / DEEN AVE,,PHB,UNDER EVALUATION,COMPLETED,None Identified,49,407,JUL,2014,8800,N,LAMAR BLVD,101,,DEEN AVE,PVL14-000350,,,30.356575,-97.7012711
REQ14-001220,LAMAR BLVD / DEEN AVE,,PHB,UNDER EVALUATION,COMPLETED,None Identified,52,383,DEC,2016,8800,N,LAMAR BLVD,101,,DEEN AVE,PVL16-000180,,,30.356575,-97.7012711
REQ14-001230,MANOR RD / SWEENEY LN,,PHB,STUDY,COMPLETED,None Identified,31,453,JUL,2014,5900,,MANOR RD,2500,,SWEENEY LN,PVL14-000365,,,30.3064816,-97.6800484
REQ14-001230,MANOR RD / SWEENEY LN,,PHB,STUDY,COMPLETED,None Identified,9,450,DEC,2016,5900,,MANOR RD,2500,,SWEENEY LN,PVL16-000190,,,30.3064816,-97.6800484
REQ14-001235,LAMAR BLVD / FAIRFIELD DR,,PHB,STUDY,COMPLETED,None Identified,14,511,JUL,2014,8700,N,LAMAR BLVD,801,,FAIRFIELD DR,PVL14-000380,,,30.3554809,-97.7026886
REQ14-001245,1700 BLK E 51ST ST (Bartholomew Park),Bartholomew Park,PHB,STUDY,COMPLETED,None Identified,16,505,JUL,2014,1700,E,51ST ST,0,,,PVL14-000395,,,30.3018208,-97.6959839
REQ14-001255,7900 BLK S CONGRESS AVE (Capital Area Food Bank),Capital Area Food Bank,PHB,UNDER EVALUATION,COMPLETED,None Identified,34,441,JUL,2014,7900,S,CONGRESS AVE,0,,,PVL14-000405,,,30.17654,-97.78418
REQ14-001255,7900 BLK S CONGRESS AVE (Capital Area Food Bank),Capital Area Food Bank,PHB,UNDER EVALUATION,COMPLETED,None Identified,16,437,DEC,2016,7900,S,CONGRESS AVE,0,,,PVL16-000210,,,30.17654,-97.78418
REQ14-001260,PLEASANT VALLEY RD / BUTTON BEND CIR,,PHB,UNDER EVALUATION,COMPLETED,None Identified,35,435,JUL,2014,4600,S,PLEASANT VALLEY RD,4400,,BUTTON BEND CIR,PVL14-000410,,,30.2015802,-97.7421284
REQ14-001260,PLEASANT VALLEY RD / BUTTON BEND CIR,,PHB,UNDER EVALUATION,COMPLETED,None Identified,19,435,DEC,2016,4600,S,PLEASANT VALLEY RD,4400,,BUTTON BEND CIR,PVL16-000220,,,30.2015802,-97.7421284
REQ14-001265,MARTIN LUTHER KING JR BLVD / CLIFFORD AVE,,PHB,UNDER EVALUATION,COMPLETED,None Identified,38,429,JUL,2014,2900,E,MARTIN LUTHER KING JR BLVD,1600,,CLIFFORD AVE,PVL14-000415,,,30.2819475,-97.707715
REQ14-001265,MARTIN LUTHER KING JR BLVD / CLIFFORD AVE,,PHB,UNDER EVALUATION,COMPLETED,None Identified,22,428,DEC,2016,2900,E,MARTIN LUTHER KING JR BLVD,1600,,CLIFFORD AVE,PVL16-000230,,,30.2819475,-97.707715
REQ14-001270,1221 BLK S LAMAR BLVD (AMLI),AMLI,PHB,UNDER EVALUATION,COMPLETED,None Identified,47,410,JUL,2014,1221,S,LAMAR BLVD,0,,,PVL14-000420,,,30.252393,-97.764113
REQ14-001270,1221 BLK S LAMAR BLVD (AMLI),AMLI,PHB,UNDER EVALUATION,COMPLETED,None Identified,33,410,DEC,2016,1221,S,LAMAR BLVD,0,,,PVL16-000240,,,30.252393,-97.764113
REQ16-001280,MESA DR / CIMA SERENA,,PHB,NOT RECOMMENDED,COMPLETED,1/4 Cent,12,0,,,8406,,MESA DR,3901,,CIMA SERENA,PVL16-001230,,Does not meet PHB installation requirements.,30.3774548,-97.75347857
REQ14-001285,STASSNEY LN / TALLOW TREE DR,,PHB,UNDER EVALUATION,COMPLETED,None Identified,42,423,JUL,2014,2230,E,STASSNEY LN,5619,,TALLOW TREE DR,PVL14-000435,,,30.1933993,-97.7535891
REQ14-001285,STASSNEY LN / TALLOW TREE DR,,PHB,UNDER EVALUATION,COMPLETED,None Identified,27,416,DEC,2016,2230,E,STASSNEY LN,5619,,TALLOW TREE DR,PVL16-000370,,,30.1933993,-97.7535891
REQ14-001290,MANCHACA RD / EDGEWARE DR,,PHB,UNDER EVALUATION,COMPLETED,None Identified,36,408,DEC,2016,3200,,MANCHACA RD,1901,,EDGEWARE DR,PVL16-000270,,,30.2397255,-97.7823447
REQ14-001295,ANDERSON LN / MULLEN DR,,PHB,UNDER EVALUATION,COMPLETED,None Identified,39,426,JUL,2014,1900,W,ANDERSON LN,7800,,MULLEN DR,PVL14-000445,,,30.3538418,-97.72601836
REQ14-001295,ANDERSON LN / MULLEN DR,,PHB,UNDER EVALUATION,COMPLETED,None Identified,26,423,DEC,2016,1900,W,ANDERSON LN,7800,,MULLEN DR,PVL16-000275,,,30.3538418,-97.72601836
REQ14-001300,WESTERN TRAILS BLVD / TEJAS TRL,,PHB,UNDER EVALUATION,COMPLETED,None Identified,62,362,JUL,2014,2507,,WESTERN TRAILS BLVD,4501,,TEJAS TRL,PVL14-000450,,,30.2297525,-97.7970532
REQ14-001300,WESTERN TRAILS BLVD / TEJAS TRL,,PHB,UNDER EVALUATION,COMPLETED,None Identified,62,362,DEC,2016,2507,,WESTERN TRAILS BLVD,4501,,TEJAS TRL,PVL16-000290,,,30.2297525,-97.7970532
REQ14-001310,500 BLK N PLEASANT VALLEY RD,,PHB,NOT RECOMMENDED,COMPLETED,None Identified,26,471,JUL,2014,500,N,PLEASANT VALLEY RD,0,,,PVL14-000460,,,30.25773,-97.71057
REQ14-001315,701 BLK E DEAN KEETON ST,,PHB,RECOMMENDED,COMPLETED,Private,46,411,JUL,2014,701,E,DEAN KEETON ST,0,,,PVL14-000465,,UT funded PHB request,30.289264,-97.731121
REQ14-001315,701 BLK E DEAN KEETON ST,,PHB,RECOMMENDED,COMPLETED,Private,,367,DEC,2016,701,E,DEAN KEETON ST,0,,,PVL16-000305,,UT funded PHB request,30.289264,-97.731121
REQ14-001320,7TH ST / SAN MARCOS ST,,PHB,UNDER EVALUATION,COMPLETED,None Identified,45,415,JUL,2014,922,E,7TH ST,700,,SAN MARCOS ST,PVL14-000470,,,30.2660183,-97.7321093
REQ14-001320,7TH ST / SAN MARCOS ST,,PHB,UNDER EVALUATION,COMPLETED,None Identified,28,415,DEC,2016,922,E,7TH ST,700,,SAN MARCOS ST,PVL16-000320,,,30.2660183,-97.7321093
REQ14-001325,MANCHACA RD / SEDGEMOOR TRL,,PHB,UNDER EVALUATION,COMPLETED,None Identified,53,394,JUL,2014,9202,,MANCHACA RD,9201,,SEDGEMOOR TRL,PVL14-000475,,,30.1799061,-97.8201123
REQ14-001325,MANCHACA RD / SEDGEMOOR TRL,,PHB,UNDER EVALUATION,COMPLETED,None Identified,44,398,DEC,2016,9202,,MANCHACA RD,9201,,SEDGEMOOR TRL,PVL16-000325,,,30.1799061,-97.8201123
REQ16-001330,MARTIN LUTHER KING JR BLVD / ASTOR PL,,PHB,NOT RECOMMENDED,COMPLETED,1/4 Cent,12,0,,,4208,E,MARTIN LUTHER KING JR BLVD,1600,,ASTOR PL,PVL16-001320,,Does not meet PHB installation requirements.,30.2852688,-97.68646449
REQ14-001335,MANCHACA RD / REDWATER DR,,PHB,UNDER EVALUATION,COMPLETED,None Identified,52,400,JUL,2014,10000,,MANCHACA RD,1801,,REDWATER DR,PVL14-000485,,,30.1680241,-97.82621
REQ14-001335,MANCHACA RD / REDWATER DR,,PHB,UNDER EVALUATION,COMPLETED,None Identified,43,400,DEC,2016,10000,,MANCHACA RD,1801,,REDWATER DR,PVL16-000335,,,30.1680241,-97.82621
REQ14-001340,FREIDRICH LN / DIRECTORS BLVD,,PHB,UNDER EVALUATION,COMPLETED,None Identified,54,392,JUL,2014,4100,,FREIDRICH LN,1800,,DIRECTORS BLVD,PVL14-000490,,,30.2122069,-97.7482662
REQ14-001340,FREIDRICH LN / DIRECTORS BLVD,,PHB,UNDER EVALUATION,COMPLETED,None Identified,47,392,DEC,2016,4100,,FREIDRICH LN,1800,,DIRECTORS BLVD,PVL16-000345,,,30.2122069,-97.7482662
REQ14-001350,SAN JACINTO BLVD / 17TH ST,,PHB,UNDER EVALUATION,COMPLETED,None Identified,56,389,JUL,2014,1700,,SAN JACINTO BLVD,200,E,17TH ST,PVL14-000500,,,30.2780472,-97.7364433
REQ14-001350,SAN JACINTO BLVD / 17TH ST,,PHB,UNDER EVALUATION,COMPLETED,None Identified,48,391,DEC,2016,1700,,SAN JACINTO BLVD,200,E,17TH ST,PVL16-000355,,,30.2780472,-97.7364433
REQ15-000540,AVERY RANCH BLVD / NORTH CANOA HILLS TRL,,TRAFFIC,UNDER EVALUATION,COMPLETED,None Identified,15,110,MAY,2015,14400,,AVERY RANCH BLVD,10700,,NORTH CANOA HILLS TRL,TVL15-000570,"(30.4967387, -97.7817699)",,30.4967387,-97.7817699
REQ14-001365,ANDERSON MILL RD / PECAN CREEK PKWY,,PHB,UNDER EVALUATION,COMPLETED,None Identified,59,375,JUL,2014,10706,,ANDERSON MILL RD,11500,,PECAN CREEK PKWY,PVL14-000515,,,30.4469471,-97.81194141
REQ14-001365,ANDERSON MILL RD / PECAN CREEK PKWY,,PHB,UNDER EVALUATION,COMPLETED,None Identified,55,375,DEC,2016,10706,,ANDERSON MILL RD,11500,,PECAN CREEK PKWY,PVL16-000375,,,30.4469471,-97.81194141
REQ14-001370,DAVIS LN / COPANO DR,,PHB,NOT RECOMMENDED,COMPLETED,None Identified,60,370,JUL,2014,4601,,DAVIS LN,8901,,COPANO DR,PVL14-000520,,Traffic signal recommended,30.2017832,-97.8574657
REQ14-001370,DAVIS LN / COPANO DR,,PHB,NOT RECOMMENDED,COMPLETED,None Identified,,370,DEC,2016,4601,,DAVIS LN,8901,,COPANO DR,PVL16-001535,,Traffic signal recommended,30.2017832,-97.8574657
REQ14-001375,LOYOLA LN / COLONY PARK DR,,PHB,STUDY,COMPLETED,None Identified,58,378,JUL,2014,6716,,LOYOLA LN,6700,,COLONY PARK DR,PVL14-000525,,being studied for a traffic signal,30.2984979,-97.6446561
REQ14-001375,LOYOLA LN / COLONY PARK DR,,PHB,STUDY,COMPLETED,None Identified,,368,DEC,2016,6716,,LOYOLA LN,6700,,COLONY PARK DR,PVL16-001540,,being studied for a traffic signal,30.2984979,-97.6446561
REQ14-001380,RED RIVER ST / 30TH ST,,PHB,UNDER EVALUATION,COMPLETED,None Identified,55,390,JUL,2014,3000,,RED RIVER ST,900,E,30TH ST,PVL14-000530,,,30.2889019,-97.7267944
REQ14-001380,RED RIVER ST / 30TH ST,,PHB,UNDER EVALUATION,COMPLETED,None Identified,50,390,DEC,2016,3000,,RED RIVER ST,900,E,30TH ST,PVL16-001545,,,30.2889019,-97.7267944
REQ14-001385,ST JOHNS AVE / BETHUNE AVE,,PHB,UNDER EVALUATION,COMPLETED,None Identified,64,360,JUL,2014,1000,E,ST JOHNS AVE,7200,,BETHUNE AVE,PVL14-000535,,,30.3301126,-97.6982888
REQ14-001385,ST JOHNS AVE / BETHUNE AVE,,PHB,UNDER EVALUATION,COMPLETED,None Identified,64,357,DEC,2016,1000,E,ST JOHNS AVE,7200,,BETHUNE AVE,PVL16-001550,,,30.3301126,-97.6982888
REQ14-001395,12208 BLK TECHNOLOGY BLVD,,PHB,UNDER EVALUATION,COMPLETED,None Identified,65,355,JUL,2014,12208,,TECHNOLOGY BLVD,0,,,PVL14-000545,,,30.43525,-97.75964
REQ14-001395,12208 BLK TECHNOLOGY BLVD,,PHB,UNDER EVALUATION,COMPLETED,None Identified,65,355,DEC,2016,12208,,TECHNOLOGY BLVD,0,,,PVL16-001560,,,30.43525,-97.75964
REQ14-001400,700 BLK CENTER RIDGE DR,,PHB,UNDER EVALUATION,COMPLETED,None Identified,69,335,JUL,2014,700,,CENTER RIDGE DR,0,,,PVL14-000550,,,30.4176425,-97.6712075
REQ14-001400,700 BLK CENTER RIDGE DR,,PHB,UNDER EVALUATION,COMPLETED,None Identified,71,335,DEC,2016,700,,CENTER RIDGE DR,0,,,PVL16-001555,,,30.4176425,-97.6712075
REQ14-001405,LOYOLA LN / SANDSHOF DR,,PHB,UNDER EVALUATION,COMPLETED,None Identified,61,364,JUL,2014,6506,,LOYOLA LN,6700,,SANDSHOF DR,PVL14-000555,,,30.2990208,-97.64558941
REQ14-001405,LOYOLA LN / SANDSHOF DR,,PHB,UNDER EVALUATION,COMPLETED,None Identified,,338,DEC,2016,6506,,LOYOLA LN,6700,,SANDSHOF DR,PVL16-001630,,,30.2990208,-97.64558941
REQ14-001410,MANCHACA RD / CIMARRON TRL,,PHB,UNDER EVALUATION,COMPLETED,None Identified,67,341,JUL,2014,4500,,MANCHACA RD,2001,,CIMARRON TRL,PVL14-000560,,,30.2270336,-97.79016423
REQ14-001410,MANCHACA RD / CIMARRON TRL,,PHB,UNDER EVALUATION,COMPLETED,None Identified,69,342,DEC,2016,4500,,MANCHACA RD,2001,,CIMARRON TRL,PVL16-001520,,,30.2270336,-97.79016423
REQ14-001415,SLAUGHTER LN / VINEMONT DR,,PHB,UNDER EVALUATION,COMPLETED,None Identified,66,345,JUL,2014,6300,W,SLAUGHTER LN,9601,,VINEMONT DR,PVL14-000565,,,30.2033024,-97.88467196
REQ14-001415,SLAUGHTER LN / VINEMONT DR,,PHB,UNDER EVALUATION,COMPLETED,None Identified,68,345,DEC,2016,6300,W,SLAUGHTER LN,9601,,VINEMONT DR,PVL16-001525,,,30.2033024,-97.88467196
REQ14-001420,WEST GATE BLVD / COHOBA DR,,PHB,UNDER EVALUATION,COMPLETED,None Identified,68,336,JUL,2014,8900,,WEST GATE BLVD,2927,,COHOBA DR,PVL14-000570,,,30.187032,-97.8361346
REQ14-001420,WEST GATE BLVD / COHOBA DR,,PHB,UNDER EVALUATION,COMPLETED,None Identified,70,337,DEC,2016,8900,,WEST GATE BLVD,2927,,COHOBA DR,PVL16-001530,,,30.187032,-97.8361346
REQ14-001425,MANCHACA RD / FOREST HILL DR,,PHB,UNDER EVALUATION,COMPLETED,None Identified,70,332,JUL,2014,4519,,MANCHACA RD,1601,,FOREST HILL DR,PVL14-000575,,,30.2257656,-97.7909699
REQ14-001425,MANCHACA RD / FOREST HILL DR,,PHB,UNDER EVALUATION,COMPLETED,None Identified,73,333,DEC,2016,4519,,MANCHACA RD,1601,,FOREST HILL DR,PVL16-001575,,,30.2257656,-97.7909699
REQ14-001430,38TH ST / MONTROSE ST,,PHB,UNDER EVALUATION,COMPLETED,None Identified,73,315,JUL,2014,604,E,38TH ST,3700,,MONTROSE ST,PVL14-000580,,,30.297868,-97.728117
REQ14-001430,38TH ST / MONTROSE ST,,PHB,UNDER EVALUATION,COMPLETED,None Identified,81,315,DEC,2016,604,E,38TH ST,3700,,MONTROSE ST,PVL16-001580,,,30.297868,-97.728117
REQ14-001435,10200 BLK BURNET RD (Travis County Adult Probation),Travis County Adult Probation,PHB,UNDER EVALUATION,COMPLETED,None Identified,72,325,JUL,2014,10200,,BURNET RD,0,,,PVL14-000585,,,30.3874584,-97.7216121
REQ14-001435,10200 BLK BURNET RD (Travis County Adult Probation),Travis County Adult Probation,PHB,UNDER EVALUATION,COMPLETED,None Identified,75,329,DEC,2016,10200,,BURNET RD,0,,,PVL16-001585,,,30.3874584,-97.7216121
REQ14-001440,PLEASANT VALLEY RD / FRANKLIN PARK DR,,PHB,UNDER EVALUATION,COMPLETED,None Identified,71,330,JUL,2014,4904,S,PLEASANT VALLEY RD,4410,,FRANKLIN PARK DR,PVL14-000590,,,30.1984911,-97.7432195
REQ14-001440,PLEASANT VALLEY RD / FRANKLIN PARK DR,,PHB,UNDER EVALUATION,COMPLETED,None Identified,74,330,DEC,2016,4904,S,PLEASANT VALLEY RD,4410,,FRANKLIN PARK DR,PVL16-001595,,,30.1984911,-97.7432195
REQ14-001445,WEST GATE BLVD / NESBIT DR,,PHB,UNDER EVALUATION,COMPLETED,None Identified,73,315,JUL,2014,9200,,WEST GATE BLVD,3001,,NESBIT DR,PVL14-000595,,,30.184284,-97.8381682
REQ14-001445,WEST GATE BLVD / NESBIT DR,,PHB,UNDER EVALUATION,COMPLETED,None Identified,81,315,DEC,2016,9200,,WEST GATE BLVD,3001,,NESBIT DR,PVL16-001590,,,30.184284,-97.8381682
REQ14-001455,4500 BLK SETON CENTER PKWY,,PHB,UNDER EVALUATION,COMPLETED,None Identified,77,280,JUL,2014,4500,,SETON CENTER PKWY,0,,,PVL14-000605,,,30.4019637,-97.7423871
REQ14-001455,4500 BLK SETON CENTER PKWY,,PHB,UNDER EVALUATION,COMPLETED,None Identified,89,280,DEC,2016,4500,,SETON CENTER PKWY,0,,,PVL16-001600,,,30.4019637,-97.7423871
REQ14-001460,ENFIELD RD / LORRAIN ST,,PHB,UNDER EVALUATION,COMPLETED,None Identified,80,260,JUL,2014,1400,,ENFIELD RD,1500,,LORRAIN ST,PVL14-000610,,,30.2811903,-97.754955
REQ14-001460,ENFIELD RD / LORRAIN ST,,PHB,UNDER EVALUATION,COMPLETED,None Identified,96,260,DEC,2016,1400,,ENFIELD RD,1500,,LORRAIN ST,PVL16-001605,,,30.2811903,-97.754955
REQ14-001465,WEST GATE BLVD / RANCH RD,,PHB,UNDER EVALUATION,COMPLETED,None Identified,78,276,JUL,2014,7914,,WEST GATE BLVD,8005,,RANCH RD,PVL14-000615,,,30.1986198,-97.8273468
REQ14-001465,WEST GATE BLVD / RANCH RD,,PHB,UNDER EVALUATION,COMPLETED,None Identified,90,276,DEC,2016,7914,,WEST GATE BLVD,8005,,RANCH RD,PVL16-001610,,,30.1986198,-97.8273468
REQ14-001470,2200 BLK RED RIVER ST,,PHB,UNDER EVALUATION,COMPLETED,None Identified,79,265,JUL,2014,2200,,RED RIVER ST,0,,,PVL14-000620,,,30.2860545,-97.7271202
REQ14-001470,2200 BLK RED RIVER ST,,PHB,UNDER EVALUATION,COMPLETED,None Identified,93,265,DEC,2016,2200,,RED RIVER ST,0,,,PVL16-001615,,,30.2860545,-97.7271202
REQ14-001475,HARRIS BRANCH PKWY / ST MERRYN RD,,PHB,UNDER EVALUATION,COMPLETED,None Identified,76,290,JUL,2014,11216,,HARRIS BRANCH PKWY,11112,,ST MERRYN RD,PVL14-000625,,,30.3473896,-97.6137139
REQ14-001475,HARRIS BRANCH PKWY / ST MERRYN RD,,PHB,UNDER EVALUATION,COMPLETED,None Identified,87,290,DEC,2016,11216,,HARRIS BRANCH PKWY,11112,,ST MERRYN RD,PVL16-001620,,,30.3473896,-97.6137139
REQ14-001480,WEST GATE BLVD / HIDDEN OAKS DR,,PHB,UNDER EVALUATION,COMPLETED,None Identified,82,235,JUL,2014,7209,,WEST GATE BLVD,2605,,HIDDEN OAKS DR,PVL14-000630,,,30.203448,-97.8174736
REQ14-001480,WEST GATE BLVD / HIDDEN OAKS DR,,PHB,UNDER EVALUATION,COMPLETED,None Identified,97,235,DEC,2016,7209,,WEST GATE BLVD,2605,,HIDDEN OAKS DR,PVL16-001625,,,30.203448,-97.8174736
REQ14-001485,45TH ST / RAMSEY AVE,,PHB,UNDER EVALUATION,COMPLETED,None Identified,85,220,JUL,2014,1600,W,45TH ST,4500,,RAMSEY AVE,PVL14-000635,,,30.3162044,-97.7433696
REQ14-001485,45TH ST / RAMSEY AVE,,PHB,UNDER EVALUATION,COMPLETED,None Identified,100,220,DEC,2016,1600,W,45TH ST,4500,,RAMSEY AVE,PVL16-001705,,,30.3162044,-97.7433696
REQ14-001490,MANCHACA RD / MILES AVE,,PHB,UNDER EVALUATION,COMPLETED,None Identified,84,224,JUL,2014,6400,,MANCHACA RD,1901,,MILES AVE,PVL14-000640,,,30.2070235,-97.8058636
REQ14-001490,MANCHACA RD / MILES AVE,,PHB,UNDER EVALUATION,COMPLETED,None Identified,99,224,DEC,2016,6400,,MANCHACA RD,1901,,MILES AVE,PVL16-001635,,,30.2070235,-97.8058636
REQ14-001495,HARRIS BRANCH PKWY / GILES LN,,PHB,UNDER EVALUATION,COMPLETED,None Identified,82,235,JUL,2014,11201,,HARRIS BRANCH PKWY,10900,,GILES LN,PVL14-000645,,,30.3453457,-97.6135619
REQ14-001495,HARRIS BRANCH PKWY / GILES LN,,PHB,UNDER EVALUATION,COMPLETED,None Identified,97,235,DEC,2016,11201,,HARRIS BRANCH PKWY,10900,,GILES LN,PVL16-001640,,,30.3453457,-97.6135619
REQ14-001500,PARKCREST DR / BALCONES DR,,PHB,NOT RECOMMENDED,COMPLETED,None Identified,81,252,JUL,2014,5400,,PARKCREST DR,5212,,BALCONES DR,PVL14-000650,,being studied for a traffic signal,30.3354359,-97.75877021
REQ14-001500,PARKCREST DR / BALCONES DR,,PHB,NOT RECOMMENDED,COMPLETED,None Identified,,252,DEC,2016,5400,,PARKCREST DR,5212,,BALCONES DR,PVL16-001645,,being studied for a traffic signal,30.3354359,-97.75877021
REQ14-001545,9516 BLK N LAMAR BLVD,,PHB,NOT RECOMMENDED,COMPLETED,None Identified,9,550,JUL,2014,9516,N,LAMAR BLVD,0,,,PVL14-000695,,Too close to existing traffic signals.,30.3662615,-97.6964064
REQ14-001555,1000 BLK NORWOOD PARK BLVD,,PHB,RECOMMENDED,COMPLETED,None Identified,9,416,DEC,2014,1000,,NORWOOD PARK BLVD,0,,,PVL14-000705,,,30.3387775,-97.6926828
REQ14-001560,GUADALUPE ST / 25TH ST,,PHB,NOT RECOMMENDED,COMPLETED,None Identified,4,490,DEC,2014,2400,,GUADALUPE ST,301,W,25TH ST,PVL14-000710,,Does not meet PHB installation requirements.,30.2887669,-97.7414703
REQ14-001585,LAMAR BLVD / SUNSHINE DR,,PHB,NOT RECOMMENDED,COMPLETED,None Identified,2,511,DEC,2014,4500,N,LAMAR BLVD,4600,,SUNSHINE DR,PVL14-000735,,Most of the pedestrian demand in this area served by existing PHB to the north.,30.3149064,-97.7366433
REQ14-001595,RED RIVER ST / 40TH ST,,PHB,UNDER EVALUATION,COMPLETED,None Identified,7,425,DEC,2014,4000,,RED RIVER ST,900,E,40TH ST,PVL14-000745,,,30.298572,-97.7226818
REQ14-001595,RED RIVER ST / 40TH ST,,PHB,UNDER EVALUATION,COMPLETED,None Identified,61,364,DEC,2016,4000,,RED RIVER ST,900,E,40TH ST,PVL16-001650,,,30.298572,-97.7226818
REQ15-000595,FM 2222 RD / HIGHLAND HILLS CIR,,TRAFFIC,UNDER EVALUATION,COMPLETED,None Identified,26,65,MAY,2015,3552,,FM 2222 RD,5700,,HIGHLAND HILLS CIR,TVL15-000515,"(30.3395348, -97.7593307)",,30.3395348,-97.7593307
REQ15-000600,AVERY RANCH BLVD / DOUBLE EAGLE PASS,,TRAFFIC,UNDER EVALUATION,COMPLETED,None Identified,128,5,DEC,2016,15700,,AVERY RANCH BLVD,10200,,DOUBLE EAGLE PASS,TVL16-002600,"(30.5017547, -97.7568588)",,30.5017547,-97.7568588
REQ16-000845,BRODIE LN / BRODIE LN (Villages of Bella Vista & Ridgeview Apts.),Villages of Bella Vista & Ridgeview Apts.,TRAFFIC,UNDER EVALUATION,COMPLETED,None Identified,50,125,DEC,2016,8300,,BRODIE LN,8601,,BRODIE LN,TVL16-003250,"(30.19862, -97.840158)",at entrance to Villages of Bella Vista & Ridgeview Apts.,30.19862,-97.840158
REQ16-000850,29TH ST / JEFFERSON ST,,TRAFFIC,UNDER EVALUATION,IN PROGRESS,None Identified,82,90,DEC,2017,1700,W,29TH ST,2814,,JEFFERSON ST,TVL17-003675,"(30.3018088, -97.7551691)",,30.3018088,-97.7551691
REQ16-001640,6TH ST / WALLER ST,,PHB,NOT RECOMMENDED,COMPLETED,1/4 Cent,12,0,,,1100,E,6TH ST,600,,WALLER ST,PVL16-000790,,All-way stop installed.,30.2644081,-97.7305374
REQ16-000905,NUCKOLS CROSSING RD / VERTEX BLVD,,TRAFFIC,UNDER EVALUATION,COMPLETED,None Identified,76,95,DEC,2016,8600,,NUCKOLS CROSSING RD,8601,,VERTEX BLVD,TVL16-003315,"(30.1578485, -97.7523808)",,30.1578485,-97.7523808
REQ16-001005,SCOFIELD RIDGE PKWY / HOWARD LN,,TRAFFIC,STUDY,COMPLETED,None Identified,1,390,DEC,2016,1800,,SCOFIELD RIDGE PKWY,1718,W,HOWARD LN,TVL16-000105,"(30.428375, -97.681229)",,30.428375,-97.681229
REQ16-001015,HOWARD LN / WELLS BRANCH PKWY,,TRAFFIC,CONSTRUCTION,COMPLETED,Funded,5,0,,,3301,W,HOWARD LN,3313,W,WELLS BRANCH PKWY,TVL16-000095,"(30.4400311, -97.69589448)",Constructed for Travis County - Reimbursable.,30.4400311,-97.69589448
REQ15-001790,HUNTLAND DR / ROLAND JOHNSON DR,,PHB,UNDER EVALUATION,COMPLETED,None Identified,16,414,DEC,2015,400,E,HUNTLAND DR,6900,,ROLAND JOHNSON DR,PVL15-000940,,,30.3305399,-97.707102
REQ15-001790,HUNTLAND DR / ROLAND JOHNSON DR,,PHB,UNDER EVALUATION,COMPLETED,None Identified,35,409,DEC,2016,400,E,HUNTLAND DR,6900,,ROLAND JOHNSON DR,PVL16-001430,,,30.3305399,-97.707102
REQ15-001800,FREIDRICH LN / DIRECTORS BLVD,,PHB,UNDER EVALUATION,COMPLETED,None Identified,31,277,DEC,2015,4100,,FREIDRICH LN,1800,,DIRECTORS BLVD,PVL15-000950,,,30.2122069,-97.7482662
REQ15-001805,RUTLAND DR / RUTLAND VILLAGE EAST,,PHB,UNDER EVALUATION,COMPLETED,None Identified,19,386,DEC,2015,1800,,RUTLAND DR,10000,,RUTLAND VILLAGE EAST,PVL15-000955,,,30.3778344,-97.7102921
REQ15-001805,RUTLAND DR / RUTLAND VILLAGE EAST,,PHB,UNDER EVALUATION,COMPLETED,None Identified,51,386,DEC,2016,1800,,RUTLAND DR,10000,,RUTLAND VILLAGE EAST,PVL16-001435,,,30.3778344,-97.7102921
REQ15-001815,WILLIAM CANNON DR / RANCH RD,,PHB,STUDY,COMPLETED,None Identified,3,513,DEC,2015,3100,W,WILLIAM CANNON DR,6901,,RANCH RD,PVL15-000965,,,30.2105634,-97.8210296
REQ15-001825,PLEASANT VALLEY RD / VILLAGE WALK,,PHB,UNDER EVALUATION,COMPLETED,None Identified,33,265,DEC,2015,5100,S,PLEASANT VALLEY RD,2506,,VILLAGE WALK,PVL15-000975,,,30.1959582,-97.7448078
REQ15-001825,PLEASANT VALLEY RD / VILLAGE WALK,,PHB,UNDER EVALUATION,COMPLETED,None Identified,93,265,DEC,2016,5100,S,PLEASANT VALLEY RD,2506,,VILLAGE WALK,PVL16-001445,,,30.1959582,-97.7448078
REQ15-001835,WILLIAM CANNON DR / SHIER CV,,PHB,UNDER EVALUATION,COMPLETED,None Identified,24,353,DEC,2015,2204,W,WILLIAM CANNON DR,6801,,SHIER CV,PVL15-000985,,,30.203217,-97.809611
REQ15-001835,WILLIAM CANNON DR / SHIER CV,,PHB,UNDER EVALUATION,COMPLETED,None Identified,66,351,DEC,2016,2204,W,WILLIAM CANNON DR,6801,,SHIER CV,PVL16-001420,,,30.203217,-97.809611
REQ15-001840,1ST ST / RALPH ABLANEDO DR,,PHB,UNDER EVALUATION,COMPLETED,None Identified,26,331,DEC,2015,8600,S,1ST ST,601,,RALPH ABLANEDO DR,PVL15-000990,,,30.1741133,-97.7989036
REQ15-001840,1ST ST / RALPH ABLANEDO DR,,PHB,UNDER EVALUATION,COMPLETED,None Identified,78,321,DEC,2016,8600,S,1ST ST,601,,RALPH ABLANEDO DR,PVL16-001410,,,30.1741133,-97.7989036
REQ15-001845,OLTORF ST / SUNRIDGE DR,,PHB,UNDER EVALUATION,COMPLETED,None Identified,14,429,DEC,2015,4800,E,OLTORF ST,2601,,SUNRIDGE DR,PVL15-000995,,,30.223044,-97.722307
REQ15-001845,OLTORF ST / SUNRIDGE DR,,PHB,UNDER EVALUATION,COMPLETED,None Identified,22,428,DEC,2016,4800,E,OLTORF ST,2601,,SUNRIDGE DR,PVL16-001415,,,30.223044,-97.722307
REQ15-001850,LAMAR BLVD / LITTLE OAK DR,,PHB,UNDER EVALUATION,COMPLETED,None Identified,15,423,DEC,2015,11850,N,LAMAR BLVD,601,,LITTLE OAK DR,PVL15-001000,,,30.389371,-97.6828946
REQ15-001850,LAMAR BLVD / LITTLE OAK DR,,PHB,UNDER EVALUATION,COMPLETED,None Identified,25,424,DEC,2016,11850,N,LAMAR BLVD,601,,LITTLE OAK DR,PVL16-001455,,,30.389371,-97.6828946
REQ15-001855,LAMAR BLVD / FERGUSON DR,,PHB,STUDY,COMPLETED,None Identified,5,500,DEC,2015,10900,N,LAMAR BLVD,701,,FERGUSON DR,PVL15-001005,,,30.3776913,-97.6887665
REQ15-001865,AIRPORT BLVD / 16TH ST,,PHB,UNDER EVALUATION,COMPLETED,None Identified,18,401,DEC,2015,1500,,AIRPORT BLVD,3100,E,16TH ST,PVL15-001015,,,30.2797145,-97.7021682
REQ15-001865,AIRPORT BLVD / 16TH ST,,PHB,UNDER EVALUATION,COMPLETED,None Identified,42,401,DEC,2016,1500,,AIRPORT BLVD,3100,E,16TH ST,PVL16-001400,,,30.2797145,-97.7021682
REQ15-001870,AIRPORT BLVD / ANTONE ST,,PHB,UNDER EVALUATION,COMPLETED,None Identified,29,300,DEC,2015,4001,,AIRPORT BLVD,1830,,ANTONE ST,PVL15-001020,,,30.2913058,-97.7074162
REQ15-001870,AIRPORT BLVD / ANTONE ST,,PHB,UNDER EVALUATION,COMPLETED,None Identified,86,300,DEC,2016,4001,,AIRPORT BLVD,1830,,ANTONE ST,PVL16-001405,,,30.2913058,-97.7074162
REQ15-001875,AIRPORT BLVD / 49TH ST,,PHB,UNDER EVALUATION,COMPLETED,None Identified,12,439,DEC,2015,4900,,AIRPORT BLVD,900,E,49TH ST,PVL15-001025,,,30.3092046,-97.7156199
REQ15-001875,AIRPORT BLVD / 49TH ST,,PHB,UNDER EVALUATION,COMPLETED,None Identified,15,439,DEC,2016,4900,,AIRPORT BLVD,900,E,49TH ST,PVL16-001380,,,30.3092046,-97.7156199
REQ15-001885,FM 969 RD / REGENCY DR,,PHB,NOT RECOMMENDED,COMPLETED,None Identified,5,500,DEC,2015,6100,,FM 969 RD,5000,,REGENCY DR,PVL15-001035,,,30.28507,-97.661974
REQ15-001890,600 BLK E 10TH ST,,PHB,UNDER EVALUATION,COMPLETED,None Identified,35,205,DEC,2015,600,E,10TH ST,0,,,PVL15-001040,,,30.26993,-97.73475
REQ15-001890,600 BLK E 10TH ST,,PHB,UNDER EVALUATION,COMPLETED,None Identified,103,205,DEC,2016,600,E,10TH ST,0,,,PVL16-001375,,,30.26993,-97.73475
REQ15-001895,RUNDBERG LN / SINGING QUAIL DR,,PHB,UNDER EVALUATION,COMPLETED,None Identified,21,368,DEC,2015,1714,W,RUNDBERG LN,9212,,SINGING QUAIL DR,PVL15-001045,,,30.3705502,-97.7130332
REQ15-001895,RUNDBERG LN / SINGING QUAIL DR,,PHB,UNDER EVALUATION,COMPLETED,None Identified,58,368,DEC,2016,1714,W,RUNDBERG LN,9212,,SINGING QUAIL DR,PVL16-001370,,,30.3705502,-97.7130332
REQ13-001900,BURNET RD / PENNY LN,,PHB,STUDY,COMPLETED,None Identified,1,509,JUL,2013,8400,,BURNET RD,2401,,PENNY LN,PVL13-000160,,,30.3644978,-97.7286359
REQ13-001900,BURNET RD / PENNY LN,,PHB,STUDY,COMPLETED,None Identified,,529,DEC,2016,8400,,BURNET RD,2401,,PENNY LN,PVL16-001690,,,30.3644978,-97.7286359
REQ15-001915,1ST ST / GREAT BRITAIN BLVD,,PHB,NOT RECOMMENDED,COMPLETED,None Identified,16,414,DEC,2015,8200,S,1ST ST,601,,GREAT BRITAIN BLVD,PVL15-001065,,A traffic signal is recommended for this location.,30.1793423,-97.7960815
REQ15-001915,1ST ST / GREAT BRITAIN BLVD,,PHB,NOT RECOMMENDED,COMPLETED,None Identified,28,415,DEC,2016,8200,S,1ST ST,601,,GREAT BRITAIN BLVD,PVL16-001390,,A traffic signal is recommended for this location.,30.1793423,-97.7960815
REQ15-001920,TRINITY ST / 9TH ST,,PHB,UNDER EVALUATION,COMPLETED,None Identified,34,220,DEC,2015,900,,TRINITY ST,300,E,9TH ST,PVL15-001070,,,30.2698889,-97.7383113
REQ15-001920,TRINITY ST / 9TH ST,,PHB,UNDER EVALUATION,COMPLETED,None Identified,100,220,DEC,2016,900,,TRINITY ST,300,E,9TH ST,PVL16-001385,,,30.2698889,-97.7383113
REQ15-001925,MANOR RD / ALEXANDER AVE,,PHB,UNDER EVALUATION,COMPLETED,None Identified,20,373,DEC,2015,2810,,MANOR RD,2200,,ALEXANDER AVE,PVL15-001075,,,30.2856925,-97.710204
REQ15-001925,MANOR RD / ALEXANDER AVE,,PHB,UNDER EVALUATION,COMPLETED,None Identified,57,373,DEC,2016,2810,,MANOR RD,2200,,ALEXANDER AVE,PVL16-001395,,,30.2856925,-97.710204
REQ15-001930,ESCARPMENT BLVD / OLIVER LOVING TRL,,PHB,UNDER EVALUATION,COMPLETED,None Identified,32,270,DEC,2015,7600,,ESCARPMENT BLVD,6401,,OLIVER LOVING TRL,PVL15-001080,,,30.2236555,-97.8716364
REQ15-001930,ESCARPMENT BLVD / OLIVER LOVING TRL,,PHB,UNDER EVALUATION,COMPLETED,None Identified,92,270,DEC,2016,7600,,ESCARPMENT BLVD,6401,,OLIVER LOVING TRL,PVL16-001365,,,30.2236555,-97.8716364
REQ15-001935,BRODIE LN / BRODIE LN,,PHB,UNDER EVALUATION,COMPLETED,None Identified,22,360,DEC,2015,9400,,BRODIE LN,9600,,BRODIE LN,PVL15-001085,,,30.188493,-97.846659
REQ15-001935,BRODIE LN / BRODIE LN,,PHB,UNDER EVALUATION,COMPLETED,None Identified,63,360,DEC,2016,9400,,BRODIE LN,9600,,BRODIE LN,PVL16-001360,,,30.188493,-97.846659
REQ15-001940,CONGRESS AVE / LONG BOW LN,,PHB,NOT RECOMMENDED,COMPLETED,None Identified,1,585,DEC,2015,2400,S,CONGRESS AVE,100,,LONG BOW LN,PVL15-001090,,,30.237202,-97.7549394
REQ15-001945,11912 BLK N LAMAR BLVD (On the Green Apartments),On the Green Apartments,PHB,NOT RECOMMENDED,COMPLETED,None Identified,10,473,DEC,2015,11912,N,LAMAR BLVD,0,,,PVL15-001095,,,30.393071,-97.679688
REQ15-001950,DAVIS LN / ESCABOSA DR,,PHB,UNDER EVALUATION,COMPLETED,None Identified,28,320,DEC,2015,2208,,DAVIS LN,8601,,ESCABOSA DR,PVL15-001100,,,30.187453,-97.819559
REQ15-001950,DAVIS LN / ESCABOSA DR,,PHB,UNDER EVALUATION,COMPLETED,None Identified,79,320,DEC,2016,2208,,DAVIS LN,8601,,ESCABOSA DR,PVL16-001565,,,30.187453,-97.819559
REQ15-001955,51ST ST / BENNETT AVE,,PHB,UNDER EVALUATION,COMPLETED,None Identified,25,335,DEC,2015,900,E,51ST ST,5100,,BENNETT AVE,PVL15-001105,,,30.3111865,-97.7133973
REQ15-001955,51ST ST / BENNETT AVE,,PHB,UNDER EVALUATION,COMPLETED,None Identified,71,335,DEC,2016,900,E,51ST ST,5100,,BENNETT AVE,PVL16-001570,,,30.3111865,-97.7133973
REQ15-001960,ANDERSON MILL RD / BLACK OAK ST,,PHB,RECOMMENDED,COMPLETED,None Identified,8,490,DEC,2015,8864,,ANDERSON MILL RD,8923,,BLACK OAK ST,PVL15-001110,,,30.454067,-97.7733446
REQ15-001965,MANCHACA RD / BERKETT DR,,PHB,UNDER EVALUATION,COMPLETED,None Identified,27,328,DEC,2015,6200,,MANCHACA RD,2001,,BERKETT DR,PVL15-001115,,,30.2105206,-97.8036314
REQ15-001965,MANCHACA RD / BERKETT DR,,PHB,UNDER EVALUATION,COMPLETED,None Identified,76,328,DEC,2016,6200,,MANCHACA RD,2001,,BERKETT DR,PVL16-001515,,,30.2105206,-97.8036314
REQ15-001970,MANCHACA RD / ST ALBANS BLVD,,PHB,UNDER EVALUATION,COMPLETED,None Identified,30,289,DEC,2015,5200,,MANCHACA RD,1701,,ST ALBANS BLVD,PVL15-001120,,,30.2185202,-97.7954446
REQ15-001970,MANCHACA RD / ST ALBANS BLVD,,PHB,UNDER EVALUATION,COMPLETED,None Identified,88,288,DEC,2016,5200,,MANCHACA RD,1701,,ST ALBANS BLVD,PVL16-001505,,,30.2185202,-97.7954446
REQ14-001975,AIRPORT BLVD / PARKWOOD RD,,PHB,STUDY,COMPLETED,None Identified,43,420,JUL,2014,4401,,AIRPORT BLVD,4400,,PARKWOOD RD,PVL14-000430,,,30.3004634,-97.7127191
REQ14-001975,AIRPORT BLVD / PARKWOOD RD,,PHB,STUDY,COMPLETED,None Identified,,407,DEC,2016,4401,,AIRPORT BLVD,4400,,PARKWOOD RD,PVL16-001660,,,30.3004634,-97.7127191
REQ14-001980,AIRPORT BLVD / 46TH ST,,PHB,STUDY,COMPLETED,None Identified,35,435,JUL,2014,4600,,AIRPORT BLVD,920,E,46TH ST,PVL14-000505,,,30.3048494,-97.7159389
REQ14-001980,AIRPORT BLVD / 46TH ST,,PHB,STUDY,COMPLETED,None Identified,,434,DEC,2016,4600,,AIRPORT BLVD,920,E,46TH ST,PVL16-001675,,,30.3048494,-97.7159389
REQ14-001985,CONGRESS AVE / KREBS LN,,PHB,NOT RECOMMENDED,COMPLETED,None Identified,2,610,JUL,2014,3800,S,CONGRESS AVE,101,,KREBS LN,PVL14-000660,,"PHB recommended for Congress @ Alpine.  Study recommended PHB at Krebs, but was moved to Alpine due to constructability issues at Krebs.  Was part of the TAP grant.",30.2254104,-97.7625098
REQ16-001990,DUVAL RD / ANGUS RD,,PHB,UNDER EVALUATION,COMPLETED,None Identified,14,316,MAY,2016,5217,,DUVAL RD,11700,,ANGUS RD,PVL16-001140,,,30.4175235,-97.7421496
REQ16-001990,DUVAL RD / ANGUS RD,,PHB,UNDER EVALUATION,COMPLETED,None Identified,80,316,DEC,2016,5217,,DUVAL RD,11700,,ANGUS RD,PVL16-001480,,,30.4175235,-97.7421496
REQ16-001995,LAKE CREEK PKWY / BRISTLE OAK TRL,,PHB,UNDER EVALUATION,COMPLETED,None Identified,18,190,MAY,2016,11311,,LAKE CREEK PKWY,11301,,BRISTLE OAK TRL,PVL16-001145,,,30.4591939,-97.8141966
REQ16-001995,LAKE CREEK PKWY / BRISTLE OAK TRL,,PHB,UNDER EVALUATION,COMPLETED,None Identified,104,190,DEC,2016,11311,,LAKE CREEK PKWY,11301,,BRISTLE OAK TRL,PVL16-001475,,,30.4591939,-97.8141966
REQ16-002000,38TH ST / BAILEY LN,,PHB,STUDY,COMPLETED,None Identified,7,446,MAY,2016,1300,W,38TH ST,3800,,BAILEY LN,PVL16-001150,,,30.306384,-97.7457098
REQ15-002005,LAMAR BLVD / DEL CURTO RD,,PHB,UNDER EVALUATION,COMPLETED,None Identified,22,360,DEC,2015,2237,S,LAMAR BLVD,2201,,DEL CURTO RD,PVL15-001155,,,30.2472706,-97.77523217
REQ15-002005,LAMAR BLVD / DEL CURTO RD,,PHB,UNDER EVALUATION,COMPLETED,None Identified,55,375,DEC,2016,2237,S,LAMAR BLVD,2201,,DEL CURTO RD,PVL16-001510,,,30.2472706,-97.77523217
REQ16-001065,"RUNDBERG LN / TEASDALE TER (Dobie MS, Gus Garcia Rec Center)","Dobie MS, Gus Garcia Rec Center",PHB,TURNED_ON,COMPLETED,,6,455,,,1100,E,RUNDBERG LN,9400,,TEASDALE TER,PVL16-000045,"(30.3539848, -97.6813049)",,30.3539848,-97.6813049
REQ14-002025,BURNET RD / TWIN OAKS DR,,PHB,STUDY,COMPLETED,None Identified,8,422,DEC,2014,6600,,BURNET RD,2401,,TWIN OAKS DR,PVL14-000725,,,30.3419999,-97.7386757
REQ14-002025,BURNET RD / TWIN OAKS DR,,PHB,STUDY,COMPLETED,None Identified,,422,DEC,2016,6600,,BURNET RD,2401,,TWIN OAKS DR,PVL16-001695,,,30.3419999,-97.7386757
REQ16-002035,JOLLYVILLE RD / BELL AVE,,PHB,UNDER EVALUATION,COMPLETED,None Identified,16,275,MAY,2016,11640,,JOLLYVILLE RD,11600,,BELL AVE,PVL16-001185,,,30.4188473,-97.7518042
REQ16-002035,JOLLYVILLE RD / BELL AVE,,PHB,UNDER EVALUATION,COMPLETED,None Identified,91,275,DEC,2016,11640,,JOLLYVILLE RD,11600,,BELL AVE,PVL16-001485,,,30.4188473,-97.7518042
REQ16-002040,JOLLYVILLE RD / COLUMBIA OAKS DR,,PHB,UNDER EVALUATION,COMPLETED,None Identified,10,425,MAY,2016,11947,,JOLLYVILLE RD,11806,,COLUMBIA OAKS DR,PVL16-001190,,,30.425885,-97.7580216
REQ16-002040,JOLLYVILLE RD / COLUMBIA OAKS DR,,PHB,UNDER EVALUATION,COMPLETED,None Identified,24,425,DEC,2016,11947,,JOLLYVILLE RD,11806,,COLUMBIA OAKS DR,PVL16-001495,,,30.425885,-97.7580216
REQ16-002045,8400 BLK CROSS PARK DR,,PHB,UNDER EVALUATION,COMPLETED,None Identified,9,436,MAY,2016,8400,,CROSS PARK DR,0,,,PVL16-001195,,,30.340061,-97.676723
REQ16-002045,8400 BLK CROSS PARK DR,,PHB,UNDER EVALUATION,COMPLETED,None Identified,16,437,DEC,2016,8400,,CROSS PARK DR,0,,,PVL16-001490,,,30.340061,-97.676723
REQ16-002055,24TH ST / LONGVIEW ST,,PHB,STUDY,COMPLETED,None Identified,3,520,MAY,2016,1200,W,24TH ST,2400,,LONGVIEW ST,PVL16-001205,,,30.2884007,-97.7508545
REQ16-002060,35TH ST / OAKMONT BLVD,,PHB,UNDER EVALUATION,COMPLETED,None Identified,12,391,MAY,2016,1822,W,35TH ST,3400,,OAKMONT BLVD,PVL16-001210,,,30.3084869,-97.75429847
REQ16-002060,35TH ST / OAKMONT BLVD,,PHB,UNDER EVALUATION,COMPLETED,None Identified,48,391,DEC,2016,1822,W,35TH ST,3400,,OAKMONT BLVD,PVL16-001440,,,30.3084869,-97.75429847
REQ16-002065,201 BLK W RUNDBERG LN (Barrington ES),Barrington ES,PHB,UNDER EVALUATION,COMPLETED,None Identified,13,371,MAY,2016,201,W,RUNDBERG LN,0,,,PVL16-001215,,,30.362618,-97.694422
REQ16-002065,201 BLK W RUNDBERG LN (Barrington ES),Barrington ES,PHB,UNDER EVALUATION,COMPLETED,None Identified,58,368,DEC,2016,201,W,RUNDBERG LN,0,,,PVL16-001450,,,30.362618,-97.694422
REQ15-002070,AIRPORT BLVD / 55TH ST,,PHB,STUDY,IN PROGRESS,None Identified,7,495,DEC,2015,5500,,AIRPORT BLVD,800,E,55TH ST,PVL15-001030,,,30.3168713,-97.7136968
REQ16-002075,AIRPORT BLVD / JACOB FONTAINE LN (Highland Mall Entry Plaza),Highland Mall Entry Plaza,PHB,STUDY,COMPLETED,None Identified,2,395,DEC,2013,5900,,AIRPORT BLVD,501,,JACOB FONTAINE LN,PVL16-001125,,,30.325404,-97.716012
REQ16-002075,AIRPORT BLVD / JACOB FONTAINE LN (Highland Mall Entry Plaza),Highland Mall Entry Plaza,PHB,STUDY,COMPLETED,None Identified,,345,DEC,2016,5900,,AIRPORT BLVD,501,,JACOB FONTAINE LN,PVL16-001680,,,30.325404,-97.716012
REQ16-002080,AIRPORT BLVD / 40TH ST,,PHB,STUDY,COMPLETED,None Identified,9,335,,,4000,,AIRPORT BLVD,1816,E,40TH ST,PVL16-001130,,,30.2915163,-97.7076717
REQ16-002080,AIRPORT BLVD / 40TH ST,,PHB,STUDY,COMPLETED,None Identified,,335,DEC,2016,4000,,AIRPORT BLVD,1816,E,40TH ST,PVL16-001670,,,30.2915163,-97.7076717
REQ16-002085,ANDERSON MILL RD / HARMONY HILL ST,,PHB,STUDY,COMPLETED,None Identified,6,450,MAY,2016,9200,,ANDERSON MILL RD,12500,,HARMONY HILL ST,PVL16-001235,,,30.4517017,-97.7810609
REQ16-002085,ANDERSON MILL RD / HARMONY HILL ST,,PHB,STUDY,COMPLETED,None Identified,9,450,DEC,2016,9200,,ANDERSON MILL RD,12500,,HARMONY HILL ST,PVL16-001350,,,30.4517017,-97.7810609
REQ16-002090,DUVAL RD / GATE WAY,,PHB,UNDER EVALUATION,COMPLETED,None Identified,17,265,MAY,2016,5100,,DUVAL RD,11800,,GATE WAY,PVL16-001240,,,30.4161868,-97.739385
REQ16-002090,DUVAL RD / GATE WAY,,PHB,UNDER EVALUATION,COMPLETED,None Identified,93,265,DEC,2016,5100,,DUVAL RD,11800,,GATE WAY,PVL16-001500,,,30.4161868,-97.739385
REQ16-002095,HOWARD LN / HOWARD LN (CMTA Howard Ln Rail Station - East Driveway),CMTA Howard Ln Rail Station - East Driveway,PHB,UNDER EVALUATION,COMPLETED,None Identified,11,414,MAY,2016,3800,W,HOWARD LN,3701,W,HOWARD LN,PVL16-001245,,,30.4407215,-97.7002716
REQ16-002095,HOWARD LN / HOWARD LN (CMTA Howard Ln Rail Station - East Driveway),CMTA Howard Ln Rail Station - East Driveway,PHB,UNDER EVALUATION,COMPLETED,None Identified,32,414,DEC,2016,3800,W,HOWARD LN,3701,W,HOWARD LN,PVL16-001465,,,30.4407215,-97.7002716
REQ16-002100,LAKE AUSTIN BLVD / HEARN ST,,PHB,NOT RECOMMENDED,COMPLETED,None Identified,2,530,MAY,2016,2500,,LAKE AUSTIN BLVD,500,,HEARN ST,PVL16-001250,,Does not meet PHB installation requirements.,30.278539,-97.773179
REQ16-002105,5TH ST / WEST LYNN ST,,PHB,UNDER EVALUATION,COMPLETED,None Identified,8,442,MAY,2016,1600,W,5TH ST,500,,WEST LYNN ST,PVL16-001255,,,30.2737122,-97.76332593
REQ16-002105,5TH ST / WEST LYNN ST,,PHB,UNDER EVALUATION,COMPLETED,None Identified,13,442,DEC,2016,1600,W,5TH ST,500,,WEST LYNN ST,PVL16-001460,,,30.2737122,-97.76332593
REQ16-002110,DUVAL RD / WHISPERING VALLEY DR,,PHB,UNDER EVALUATION,COMPLETED,None Identified,15,315,MAY,2016,4400,,DUVAL RD,4400,,WHISPERING VALLEY DR,PVL16-001260,,,30.4125099,-97.7315926
REQ16-002110,DUVAL RD / WHISPERING VALLEY DR,,PHB,UNDER EVALUATION,COMPLETED,None Identified,81,315,DEC,2016,4400,,DUVAL RD,4400,,WHISPERING VALLEY DR,PVL16-001470,,,30.4125099,-97.7315926
REQ16-002115,PEARCE LN / PASEO NUEVO CIR,,PHB,NOT RECOMMENDED,COMPLETED,None Identified,5,465,MAY,2016,12302,,PEARCE LN,5587,,PASEO NUEVO CIR,PVL16-001265,,Does not meet PHB installation requirements.,30.1715126,-97.62754752
REQ16-002120,45TH ST / SINCLAIR AVE,,PHB,UNDER EVALUATION,COMPLETED,None Identified,100,220,DEC,2016,1700,W,45TH ST,4500,,SINCLAIR AVE,PVL16-001270,,,30.3166405,-97.7442374
REQ16-002125,WILLIAM CANNON DR / JANES RANCH RD,,PHB,UNDER EVALUATION,COMPLETED,None Identified,28,415,DEC,2016,6514,E,WILLIAM CANNON DR,7007,,JANES RANCH RD,PVL16-001275,,,30.1645813,-97.73087954
REQ16-002130,DUVAL RD / SANTA CRUZ DR,,PHB,UNDER EVALUATION,COMPLETED,None Identified,77,325,DEC,2016,4416,,DUVAL RD,11706,,SANTA CRUZ DR,PVL16-001280,,,30.4131276,-97.7328469
REQ16-002135,5108 BLK MANCHACA RD,,PHB,UNDER EVALUATION,COMPLETED,None Identified,105,186,DEC,2016,5108,,MANCHACA RD,0,,,PVL16-001285,,,30.21954,-97.794184
REQ16-002145,9800 BLK METRIC BLVD,,PHB,UNDER EVALUATION,COMPLETED,None Identified,40,402,DEC,2016,9800,,METRIC BLVD,0,,,PVL16-001295,,,30.37742,-97.7169
REQ16-002150,SCOFIELD RIDGE PKWY / WINWICK WAY,,PHB,STUDY,COMPLETED,None Identified,5,490,DEC,2016,2500,,SCOFIELD RIDGE PKWY,13300,,WINWICK WAY,PVL16-001300,,,30.4295187,-97.6952703
REQ13-002155,BURLESON RD / DIME CIR,,PHB,UNDER EVALUATION,COMPLETED,None Identified,1,450,DEC,2013,6500,,BURLESON RD,3719,,DIME CIR,PVL13-001305,,,30.2033142,-97.71224
REQ13-002155,BURLESON RD / DIME CIR,,PHB,UNDER EVALUATION,COMPLETED,None Identified,,450,DEC,2016,6500,,BURLESON RD,3719,,DIME CIR,PVL16-001655,,,30.2033142,-97.71224
REQ16-002160,MANCHACA RD / SHILOH DR,,PHB,UNDER EVALUATION,COMPLETED,None Identified,54,378,DEC,2016,7826,,MANCHACA RD,2001,,SHILOH DR,PVL16-001310,,,30.1912073,-97.8129334
REQ16-002165,MANOR RD / STAFFORD ST,,PHB,UNDER EVALUATION,COMPLETED,None Identified,40,402,DEC,2016,2400,,MANOR RD,2200,,STAFFORD ST,PVL16-001315,,,30.2848949,-97.71545075
REQ16-002170,GUADALUPE ST / 46TH ST,,PHB,STUDY,COMPLETED,None Identified,3,496,,,4526,W,GUADALUPE ST,521,W,46TH ST,PVL16-001135,,,30.3128316,-97.731653
REQ16-002170,GUADALUPE ST / 46TH ST,,PHB,STUDY,COMPLETED,None Identified,,451,DEC,2016,4526,W,GUADALUPE ST,521,W,46TH ST,PVL16-001665,,,30.3128316,-97.731653
REQ16-002175,45TH ST / TRIANGLE AVE,,PHB,UNDER EVALUATION,COMPLETED,None Identified,39,405,DEC,2016,600,W,45TH ST,4500,,TRIANGLE AVE,PVL16-001325,,,30.3122215,-97.73534791
REQ16-002180,5700 BLK S 1ST ST,,PHB,UNDER EVALUATION,COMPLETED,None Identified,60,366,DEC,2016,5700,S,1ST ST,0,,,PVL16-001330,,,30.20532,-97.78308
REQ16-002185,PLEASANT VALLEY RD / ANKEN DR,,PHB,STUDY,COMPLETED,None Identified,6,473,DEC,2016,2208,S,PLEASANT VALLEY RD,2300,,ANKEN DR,PVL16-001335,,,30.2297039,-97.72636179
REQ16-002190,DITTMAR RD / WYNNE LN,,PHB,UNDER EVALUATION,COMPLETED,None Identified,12,447,DEC,2016,1008,W,DITTMAR RD,8101,,WYNNE LN,PVL16-001340,,,30.1857319,-97.8028804
REQ16-002195,ESCARPMENT BLVD / OASIS DR,,PHB,UNDER EVALUATION,COMPLETED,None Identified,67,350,DEC,2016,7600,,ESCARPMENT BLVD,6401,,OASIS DR,PVL16-001345,,,30.22114,-97.87333
REQ16-002200,ST JOHNS AVE / BLESSING AVE,,PHB,STUDY,COMPLETED,None Identified,1,638,DEC,2016,1100,E,ST JOHNS AVE,7000,,BLESSING AVE,PVL16-000050,,,30.328583,-97.695149
REQ16-002210,1ST ST / MEADOW LEA DR,,PHB,STUDY,COMPLETED,None Identified,3,549,DEC,2016,7200,S,1ST ST,601,,MEADOW LEA DR,PVL16-000070,,,30.19,-97.79
REQ15-000510,WEST GATE BLVD / BLARWOOD DR,,TRAFFIC,UNDER EVALUATION,COMPLETED,None Identified,20,80,MAY,2015,6016,,WEST GATE BLVD,6101,,BLARWOOD DR,TVL15-000600,"(30.2166413, -97.8116231)",,30.2166413,-97.8116231
REQ16-002230,6400 BLK S CONGRESS AVE,,PHB,STUDY,COMPLETED,None Identified,8,455,DEC,2016,6400,S,CONGRESS AVE,0,,,PVL16-000065,,,30.194276,-97.778356
REQ16-002120,45TH ST / SINCLAIR AVE,,PHB,UNDER EVALUATION,IN PROGRESS,None Identified,120,220,DEC,2017,1700,W,45TH ST,4500,,SINCLAIR AVE,PVL17-002375,"(30.3166405, -97.7442374)",,30.3166405,-97.7442374
REQ16-002250,1800 BLK W PARMER LN (Parmer Ln. ES),Parmer Ln. ES,PHB,UNDER EVALUATION,COMPLETED,None Identified,13,442,DEC,2016,1800,W,PARMER LN,0,,,PVL16-000085,,Parmer Ln. is a TxDOT roadway,30.414,-97.692
REQ16-002255,JOLLYVILLE RD / ARABIAN TRL,,PHB,STUDY,COMPLETED,None Identified,7,465,DEC,2016,11806,,JOLLYVILLE RD,11800,,ARABIAN TRL,PVL16-000095,,,30.421922,-97.754689
REQ16-002260,LAKE CREEK PKWY / LAKE CREEK PKWY (South of 620 at Walmart/Harmony School/Apt. entrances),South of 620 at Walmart/Harmony School/Apt. entrances,PHB,UNDER EVALUATION,COMPLETED,None Identified,85,313,DEC,2016,9926,,LAKE CREEK PKWY,10001,,LAKE CREEK PKWY,PVL16-001355,,,30.468443,-97.788529
REQ16-002265,MONTOPOLIS DR / RICHARDSON LN,,PHB,UNDER EVALUATION,COMPLETED,None Identified,21,430,DEC,2016,700,,MONTOPOLIS DR,6000,,RICHARDSON LN,PVL16-000105,,,30.236214,-97.6962
REQ16-002270,BURLESON RD / PROMONTORY POINT DR,,PHB,STUDY,COMPLETED,None Identified,2,602,DEC,2016,4918,,BURLESON RD,3701,,PROMONTORY POINT DR,PVL16-000125,,,30.210438,-97.726866
REQ16-002125,WILLIAM CANNON DR / JANES RANCH RD,,PHB,UNDER EVALUATION,IN PROGRESS,None Identified,31,415,DEC,2017,6514,E,WILLIAM CANNON DR,7007,,JANES RANCH RD,PVL17-002370,"(30.1645813, -97.73087954)",,30.1645813,-97.73087954
REQ16-002285,6600 BLK N LAMAR BLVD (District Border (4 &7)),District Border (4 &7),PHB,UNDER EVALUATION,COMPLETED,None Identified,28,415,DEC,2016,6600,N,LAMAR BLVD,0,,,PVL16-000040,,Council District Border (4 & 7),30.334732,-97.720794
REQ16-002290,METRIC BLVD / METRIC BLVD (ACC Northridge/Broadmoor Apts.),ACC Northridge/Broadmoor Apts.,PHB,STUDY,COMPLETED,None Identified,4,511,DEC,2016,12000,,METRIC BLVD,11912,,METRIC BLVD,PVL16-000110,,@ ACC Northridge entrance,30.40209,-97.701942
REQ16-002295,ANDERSON LN / LAZY LN (Redeemer Lutheran Church & School),Redeemer Lutheran Church & School,PHB,UNDER EVALUATION,COMPLETED,None Identified,36,408,DEC,2016,1410,W,ANDERSON LN,7700,,LAZY LN,PVL16-000020,,,30.351101,-97.720244
REQ16-002315,NORTH LAKE CREEK PKWY / NORTH LAKE CREEK PKWY,,PHB,UNDER EVALUATION,COMPLETED,None Identified,81,315,DEC,2016,9823,,NORTH LAKE CREEK PKWY,9830,,NORTH LAKE CREEK PKWY,PVL16-000010,,,30.472708,-97.791946
REQ16-002320,9200 BLK BURNET RD,,PHB,UNDER EVALUATION,COMPLETED,None Identified,33,410,DEC,2016,9200,,BURNET RD,0,,,PVL16-000140,,This portion of Burnet Rd. is under TxDOT authority.,30.375892,-97.725794
REQ16-002325,LAMAR BLVD / GRADY DR,,PHB,UNDER EVALUATION,COMPLETED,None Identified,45,395,DEC,2016,10700,N,LAMAR BLVD,701,W,GRADY DR,PVL16-000130,,,30.375898,-97.68976
REQ17-002380,8700 BLK BURNET RD (South of US183),South of US183,PHB,UNDER EVALUATION,COMPLETED,None Identified,,550,DEC,2016,8700,,BURNET RD,0,,,PVL17-001710,,south of US183,30.370964,-97.726965
REQ15-000545,SLAUGHTER LN / VINEMONT DR,,TRAFFIC,UNDER EVALUATION,COMPLETED,None Identified,79,85,DEC,2016,6300,W,SLAUGHTER LN,9601,,VINEMONT DR,TVL16-002565,"(30.2033024, -97.88467196)",,30.2033024,-97.88467196
REQ15-000545,SLAUGHTER LN / VINEMONT DR,,TRAFFIC,UNDER EVALUATION,COMPLETED,None Identified,19,85,MAY,2015,6300,W,SLAUGHTER LN,9601,,VINEMONT DR,TVL15-000565,"(30.2033024, -97.88467196)",,30.2033024,-97.88467196
REQ15-000555,5TH ST / PEDERNALES ST,,TRAFFIC,UNDER EVALUATION,COMPLETED,None Identified,24,75,MAY,2015,2300,E,5TH ST,500,,PEDERNALES ST,TVL15-000555,"(30.2579418, -97.7150906)",,30.2579418,-97.7150906
REQ17-002365,11001 BLK FOUR POINTS DR,,PHB,RECENTLY RECEIVED,IN PROGRESS,None Identified,7,460,DEC,2017,11001,,FOUR POINTS DR,0,,,PVL17-001825,"(30.405853, -97.850701)",,30.405853,-97.850701
REQ17-002390,1ST ST / 1ST ST (Mary Moore Searight off leash trail),Mary Moore Searight off leash trail,PHB,RECENTLY RECEIVED,IN PROGRESS,None Identified,24,420,DEC,2017,9400,S,1ST ST,9500,S,1ST ST,PVL17-001725,"(30.167207, -97.801341)",,30.167207,-97.801341
17-002445,BLK (Town Lake Center),Town Lake Center,TRAFFIC,RECENTLY RECEIVED,IN PROGRESS,None Identified,140,30,DEC,2017,0,,,0,,,TVL17-003350,"(30.258851, -97.751391)",,30.258851,-97.751391
17-002450,REDBUD TRL / FOREST VIEW DR,,TRAFFIC,RECENTLY RECEIVED,IN PROGRESS,None Identified,159,0,DEC,2017,3604,,REDBUD TRL,906,,FOREST VIEW DR,TVL17-003520,"(30.290727, -97.79287)",,30.290727,-97.79287
17-002495,SHOAL CREEK BLVD / CROSSCREEK DR,,TRAFFIC,RECENTLY RECEIVED,IN PROGRESS,None Identified,132,50,DEC,2017,8200,,SHOAL CREEK BLVD,3301,,CROSSCREEK DR,TVL17-003380,"(30.371437, -97.737406)",,30.371437,-97.737406
REQ14-000730,1ST ST / KING EDWARD PL,,PHB,DESIGN,COMPLETED,1/4 Cent,48,408,JUL,2014,6402,S,1ST ST,701,,KING EDWARD PL,PVL14-000495,"(30.198471, -97.7869807)",,30.198471,-97.7869807
REQ16-000865,MONTOPOLIS DR / GROVE BLVD,,TRAFFIC,STUDY,COMPLETED,None Identified,8,212,MAY,2016,2400,,MONTOPOLIS DR,2000,,GROVE BLVD,TVL16-000245,"(30.2202289, -97.7070312)",,30.2202289,-97.7070312
REQ14-001240,2031 BLK W STASSNEY LN (West of Manchaca),West of Manchaca,PHB,RECOMMENDED,COMPLETED,None Identified,21,480,JUL,2014,2031,W,STASSNEY LN,0,,,PVL14-000390,"(30.21606, -97.79863)",,30.21606,-97.79863
REQ14-001250,WALSH TARLTON LN / SANDERLING TRL,,PHB,TURNED_ON,COMPLETED,1/4 Cent,32,449,JUL,2014,1000,,WALSH TARLTON LN,3201,,SANDERLING TRL,PVL14-000400,"(30.2731724, -97.8012614)",turned on 10/10/2017,30.2731724,-97.8012614
REQ14-001250,WALSH TARLTON LN / SANDERLING TRL,,PHB,TURNED_ON,COMPLETED,1/4 Cent,11,448,DEC,2016,1000,,WALSH TARLTON LN,3201,,SANDERLING TRL,PVL16-000200,"(30.2731724, -97.8012614)",turned on 10/10/2017,30.2731724,-97.8012614
17-002535,5TH ST / SAN ANTONIO ST,,TRAFFIC,RECENTLY RECEIVED,IN PROGRESS,None Identified,71,100,DEC,2017,500,W,5TH ST,400,,SAN ANTONIO ST,TVL17-004215,"(30.268388, -97.747713)",,30.268388,-97.747713
17-002540,13TH ST / SAN JACINTO BLVD,,PHB,RECENTLY RECEIVED,IN PROGRESS,None Identified,123,215,DEC,2017,200,E,13TH ST,1300,,SAN JACINTO BLVD,PVL17-001770,"(30.274358, -97.7378129)",,30.274358,-97.7378129
REQ15-000515,GUADALUPE ST / 13TH ST,,TRAFFIC,STUDY,COMPLETED,None Identified,2,310,DEC,2015,1300,,GUADALUPE ST,401,W,13TH ST,TVL15-000595,"(30.2760105, -97.7437057)",,30.2760105,-97.7437057
REQ15-000520,MORROW ST / WOODROW AVE,,TRAFFIC,UNDER EVALUATION,COMPLETED,None Identified,23,168,DEC,2016,1500,,MORROW ST,7600,,WOODROW AVE,TVL16-002555,"(30.3475672, -97.7237589)",,30.3475672,-97.7237589
REQ14-001255,7900 BLK S CONGRESS AVE (Capital Area Food Bank),Capital Area Food Bank,PHB,UNDER EVALUATION,IN PROGRESS,None Identified,14,437,DEC,2017,7900,S,CONGRESS AVE,0,,,PVL17-002265,"(30.17654, -97.78418)",,30.17654,-97.78418
REQ14-001265,MARTIN LUTHER KING JR BLVD / CLIFFORD AVE,,PHB,UNDER EVALUATION,IN PROGRESS,None Identified,19,428,DEC,2017,2900,E,MARTIN LUTHER KING JR BLVD,1600,,CLIFFORD AVE,PVL17-002255,"(30.2819475, -97.707715)",,30.2819475,-97.707715
17-002550,ANDERSON LN / TISDALE DR,,PHB,RECENTLY RECEIVED,IN PROGRESS,None Identified,65,370,DEC,2017,1308,W,ANDERSON LN,7600,,TISDALE DR,PVL17-001780,"(30.350666, -97.719295)",,30.350666,-97.719295
17-002555,3RD ST / WEST AVE,,TRAFFIC,RECENTLY RECEIVED,IN PROGRESS,None Identified,42,150,DEC,2017,800,W,3RD ST,226,,WEST AVE,TVL17-003415,"(30.267619, -97.751581)",,30.267619,-97.751581
17-002560,WEST GATE BLVD / FENTONRIDGE DR,,TRAFFIC,RECENTLY RECEIVED,IN PROGRESS,None Identified,143,25,DEC,2017,7302,,WEST GATE BLVD,2601,,FENTONRIDGE DR,TVL17-003420,"(30.20262, -97.818097)",,30.20262,-97.818097
17-002745,FM 620 RD / RIDGELINE BLVD,,TRAFFIC,RECENTLY RECEIVED,IN PROGRESS,None Identified,2,0,DEC,2018,12400,N,FM 620 RD,12500,,RIDGELINE BLVD,TVL17-004155,"(30.464741, -97.807957)",,30.464741,-97.807957
REQ15-000725,ANDERSON LN / MULLEN DR,,TRAFFIC,UNDER EVALUATION,COMPLETED,None Identified,33,152,DEC,2016,1900,W,ANDERSON LN,7800,,MULLEN DR,TVL16-003255,"(30.3538418, -97.72601836)",,30.3538418,-97.72601836
REQ16-000900,8660 BLK W SH 71 (Life Austin Church),Life Austin Church,TRAFFIC,UNDER EVALUATION,COMPLETED,None Identified,122,15,DEC,2016,8660,W,SH 71,0,,,TVL16-002785,"(30.253467, -97.900595)",,30.253467,-97.900595
REQ16-000920,ANDERSON MILL RD / CENTENNIAL TRL,,TRAFFIC,UNDER EVALUATION,IN PROGRESS,None Identified,97,80,DEC,2017,11300,,ANDERSON MILL RD,10700,,CENTENNIAL TRL,TVL17-003650,"(30.4502221, -97.8191309)",,30.4502221,-97.8191309
REQ16-000925,6TH ST / PATTERSON AVE,,TRAFFIC,UNDER EVALUATION,COMPLETED,None Identified,79,85,DEC,2016,1800,W,6TH ST,600,,PATTERSON AVE,TVL16-002810,"(30.2767801, -97.7662733)",,30.2767801,-97.7662733
REQ16-000990,VINSON DR / CARDIFF DR,,TRAFFIC,UNDER EVALUATION,IN PROGRESS,None Identified,154,5,DEC,2017,4800,,VINSON DR,801,,CARDIFF DR,TVL17-004100,"(30.2174702, -97.7820969)",,30.2174702,-97.7820969
REQ14-001195,AIRPORT BLVD / GUNTER ST,,PHB,UNDER EVALUATION,IN PROGRESS,None Identified,50,395,DEC,2017,1137,,AIRPORT BLVD,1136,,GUNTER ST,PVL17-002275,"(30.269581, -97.6967158)",,30.269581,-97.6967158
REQ14-000120,BERKMAN DR / SUFFOLK DR,,PHB,STUDY,COMPLETED,1/4 Cent,,0,DEC,2017,5400,,BERKMAN DR,1500,,SUFFOLK DR,PVL17-001720,"(30.3077316, -97.6964722)",Part of a 1/4 Cent Study for this area.,30.3077316,-97.6964722
REQ16-000900,8660 BLK W SH 71 (Life Austin Church),Life Austin Church,TRAFFIC,UNDER EVALUATION,COMPLETED,None Identified,28,15,MAY,2016,8660,W,SH 71,0,,,TVL16-000210,"(30.253467, -97.900595)",,30.253467,-97.900595
REQ16-000905,NUCKOLS CROSSING RD / VERTEX BLVD,,TRAFFIC,UNDER EVALUATION,COMPLETED,None Identified,18,95,MAY,2016,8600,,NUCKOLS CROSSING RD,8601,,VERTEX BLVD,TVL16-000205,"(30.1578485, -97.7523808)",,30.1578485,-97.7523808
REQ16-000905,NUCKOLS CROSSING RD / VERTEX BLVD,,TRAFFIC,UNDER EVALUATION,IN PROGRESS,None Identified,76,95,DEC,2017,8600,,NUCKOLS CROSSING RD,8601,,VERTEX BLVD,TVL17-003545,"(30.1578485, -97.7523808)",,30.1578485,-97.7523808
REQ16-000910,1137 BLK AIRPORT BLVD,,TRAFFIC,UNDER EVALUATION,IN PROGRESS,None Identified,2,398,DEC,2017,1137,,AIRPORT BLVD,0,,,TVL17-003655,"(30.272253, -97.6975)",,30.272253,-97.6975
REQ16-000980,LAMAR BLVD / HOUSTON ST,,TRAFFIC,DESIGN,COMPLETED,1/4 Cent,2,187,,,5502,N,LAMAR BLVD,801,,HOUSTON ST,TVL16-000130,"(30.323225, -97.7280807)",,30.323225,-97.7280807
REQ16-000985,WILLIAM CANNON DR / BANNOCKBURN DR,,TRAFFIC,STUDY,COMPLETED,None Identified,5,260,DEC,2016,3501,W,WILLIAM CANNON DR,3811,,BANNOCKBURN DR,TVL16-000125,"(30.216899, -97.834185)",,30.216899,-97.834185
REQ14-001270,1221 BLK S LAMAR BLVD (AMLI),AMLI,PHB,UNDER EVALUATION,IN PROGRESS,None Identified,36,410,DEC,2017,1221,S,LAMAR BLVD,0,,,PVL17-002250,"(30.252393, -97.764113)",,30.252393,-97.764113
REQ14-001305,WILLIAM CANNON DR / MEADOW LAKE BLVD,,PHB,INELIGIBLE,COMPLETED,None Identified,44,418,JUL,2014,4716,E,WILLIAM CANNON DR,6605,,MEADOW LAKE BLVD,PVL14-000455,"(30.1809502, -97.75025496)",Traffic signal to be installed at this location.,30.1809502,-97.75025496
REQ16-000990,VINSON DR / CARDIFF DR,,TRAFFIC,UNDER EVALUATION,COMPLETED,None Identified,128,5,DEC,2016,4800,,VINSON DR,801,,CARDIFF DR,TVL16-000120,"(30.2174702, -97.7820969)",,30.2174702,-97.7820969
REQ16-000995,1700 BLK E 51ST ST (HEB),HEB,TRAFFIC,UNDER EVALUATION,IN PROGRESS,None Identified,19,180,DEC,2017,1700,E,51ST ST,0,,,TVL17-004095,"(30.30245, -97.69746)",,30.30245,-97.69746
REQ14-001340,FREIDRICH LN / DIRECTORS BLVD,,PHB,UNDER EVALUATION,IN PROGRESS,None Identified,53,392,DEC,2017,4100,,FREIDRICH LN,1800,,DIRECTORS BLVD,PVL17-002205,"(30.2122069, -97.7482662)",,30.2122069,-97.7482662
REQ14-001350,SAN JACINTO BLVD / 17TH ST,,PHB,UNDER EVALUATION,IN PROGRESS,None Identified,54,391,DEC,2017,1700,,SAN JACINTO BLVD,200,E,17TH ST,PVL17-002200,"(30.2780472, -97.7364433)",,30.2780472,-97.7364433
REQ14-001365,ANDERSON MILL RD / PECAN CREEK PKWY,,PHB,UNDER EVALUATION,IN PROGRESS,None Identified,62,375,DEC,2017,10706,,ANDERSON MILL RD,11500,,PECAN CREEK PKWY,PVL17-002190,"(30.4469471, -97.81194141)",,30.4469471,-97.81194141
REQ14-001380,RED RIVER ST / 30TH ST,,PHB,UNDER EVALUATION,IN PROGRESS,None Identified,56,390,DEC,2017,3000,,RED RIVER ST,900,E,30TH ST,PVL17-002010,"(30.2889019, -97.7267944)",,30.2889019,-97.7267944
REQ14-001425,MANCHACA RD / FOREST HILL DR,,PHB,UNDER EVALUATION,IN PROGRESS,None Identified,86,333,DEC,2017,4519,,MANCHACA RD,1601,,FOREST HILL DR,PVL17-001980,"(30.2257656, -97.7909699)",,30.2257656,-97.7909699
REQ14-001430,38TH ST / MONTROSE ST,,PHB,UNDER EVALUATION,IN PROGRESS,None Identified,95,315,DEC,2017,604,E,38TH ST,3700,,MONTROSE ST,PVL17-001975,"(30.297868, -97.728117)",,30.297868,-97.728117
REQ16-001730,"830 BLK W RUNDBERG LN (Little Walnut Creek Library, HEB)","Little Walnut Creek Library, HEB",PHB,TURNED_ON,COMPLETED,Funded,12,0,,,830,W,RUNDBERG LN,0,,,PVL16-000880,"(30.3636856, -97.6981583)",,30.3636856,-97.6981583
REQ16-001735,2100 BLK BARTON SPRINGS RD (Zilker Park),Zilker Park,PHB,TURNED_ON,COMPLETED,Funded,12,0,,,2100,,BARTON SPRINGS RD,0,,,PVL16-000885,"(30.2660046, -97.7681274)",,30.2660046,-97.7681274
REQ14-001020,SPICEWOOD SPRINGS RD / TEXAS PLUME RD,,PHB,TURNED_ON,COMPLETED,1/4 Cent,75,295,JUL,2014,8431,,SPICEWOOD SPRINGS RD,8109,,TEXAS PLUME RD,PVL14-000600,"(30.4251404, -97.7848969)","Turned on 10/4/2017
Near Canyon Vista MS",30.4251404,-97.7848969
REQ16-001025,1424 BLK W WELLS BRANCH PKWY,,TRAFFIC,UNDER EVALUATION,COMPLETED,None Identified,1,190,,,1424,W,WELLS BRANCH PKWY,0,,,TVL16-000085,"(30.44103, -97.664)",,30.44103,-97.664
REQ16-001025,1424 BLK W WELLS BRANCH PKWY,,TRAFFIC,UNDER EVALUATION,IN PROGRESS,None Identified,56,120,DEC,2017,1424,W,WELLS BRANCH PKWY,0,,,TVL17-004080,"(30.44103, -97.664)",,30.44103,-97.664
REQ16-001030,RUTHERFORD LN / CENTRE CREEK DR,,TRAFFIC,UNDER EVALUATION,COMPLETED,None Identified,52,120,DEC,2016,1500,,RUTHERFORD LN,1600,,CENTRE CREEK DR,TVL16-000080,"(30.335207, -97.68051979)",,30.335207,-97.68051979
REQ14-000030,AVERY RANCH BLVD / AVERY CLUB DR,,TRAFFIC,UNDER EVALUATION,COMPLETED,None Identified,19,110,DEC,2014,15001,,AVERY RANCH BLVD,10300,,AVERY CLUB DR,TVL14-001080,"(30.4988034, -97.7707116)",,30.4988034,-97.7707116
REQ14-000030,AVERY RANCH BLVD / AVERY CLUB DR,,TRAFFIC,UNDER EVALUATION,COMPLETED,None Identified,59,110,DEC,2016,15001,,AVERY RANCH BLVD,10300,,AVERY CLUB DR,TVL16-002260,"(30.4988034, -97.7707116)",,30.4988034,-97.7707116
REQ14-000030,AVERY RANCH BLVD / AVERY CLUB DR,,TRAFFIC,UNDER EVALUATION,IN PROGRESS,None Identified,61,110,DEC,2017,15001,,AVERY RANCH BLVD,10300,,AVERY CLUB DR,TVL17-004015,"(30.4988034, -97.7707116)",,30.4988034,-97.7707116
REQ14-001415,SLAUGHTER LN / VINEMONT DR,,PHB,UNDER EVALUATION,IN PROGRESS,None Identified,79,345,DEC,2017,6300,W,SLAUGHTER LN,9601,,VINEMONT DR,PVL17-002020,"(30.2033024, -97.88467196)",,30.2033024,-97.88467196
REQ14-001420,WEST GATE BLVD / COHOBA DR,,PHB,UNDER EVALUATION,IN PROGRESS,None Identified,84,337,DEC,2017,8900,,WEST GATE BLVD,2927,,COHOBA DR,PVL17-002015,"(30.187032, -97.8361346)",,30.187032,-97.8361346
REQ14-001435,10200 BLK BURNET RD (Travis County Adult Probation),Travis County Adult Probation,PHB,UNDER EVALUATION,IN PROGRESS,None Identified,88,329,DEC,2017,10200,,BURNET RD,0,,,PVL17-001970,"(30.3874584, -97.7216121)",,30.3874584,-97.7216121
REQ15-001835,WILLIAM CANNON DR / SHIER CV,,PHB,UNDER EVALUATION,IN PROGRESS,None Identified,77,351,DEC,2017,2204,W,WILLIAM CANNON DR,6801,,SHIER CV,PVL17-002125,"(30.203217, -97.809611)",,30.203217,-97.809611
REQ15-001840,1ST ST / RALPH ABLANEDO DR,,PHB,UNDER EVALUATION,IN PROGRESS,None Identified,91,321,DEC,2017,8600,S,1ST ST,601,,RALPH ABLANEDO DR,PVL17-002135,"(30.1741133, -97.7989036)",,30.1741133,-97.7989036
REQ15-001845,OLTORF ST / SUNRIDGE DR,,PHB,UNDER EVALUATION,IN PROGRESS,None Identified,19,428,DEC,2017,4800,E,OLTORF ST,2601,,SUNRIDGE DR,PVL17-002130,"(30.223044, -97.722307)",,30.223044,-97.722307
REQ15-001450,BERKMAN DR / BARBARA JORDAN BLVD,,TRAFFIC,TURNED_ON,COMPLETED,2016,4,290,MAY,2015,4900,,BERKMAN DR,1700,,BARBARA JORDAN BLVD,TVL15-000615,"(30.3023, -97.69987)",,30.3023,-97.69987
REQ14-001485,45TH ST / RAMSEY AVE,,PHB,UNDER EVALUATION,IN PROGRESS,None Identified,120,220,DEC,2017,1600,W,45TH ST,4500,,RAMSEY AVE,PVL17-001900,"(30.3162044, -97.7433696)",,30.3162044,-97.7433696
REQ14-001490,MANCHACA RD / MILES AVE,,PHB,UNDER EVALUATION,IN PROGRESS,None Identified,119,224,DEC,2017,6400,,MANCHACA RD,1901,,MILES AVE,PVL17-001920,"(30.2070235, -97.8058636)",,30.2070235,-97.8058636
REQ15-001850,LAMAR BLVD / LITTLE OAK DR,,PHB,UNDER EVALUATION,IN PROGRESS,None Identified,48,399,DEC,2017,11850,N,LAMAR BLVD,601,,LITTLE OAK DR,PVL17-002090,"(30.389371, -97.6828946)",,30.389371,-97.6828946
REQ15-001865,AIRPORT BLVD / 16TH ST,,PHB,UNDER EVALUATION,IN PROGRESS,None Identified,46,401,DEC,2017,1500,,AIRPORT BLVD,3100,E,16TH ST,PVL17-002145,"(30.2797145, -97.7021682)",,30.2797145,-97.7021682
REQ15-001870,AIRPORT BLVD / ANTONE ST,,PHB,UNDER EVALUATION,IN PROGRESS,None Identified,103,300,DEC,2017,4001,,AIRPORT BLVD,1830,,ANTONE ST,PVL17-002140,"(30.2913058, -97.7074162)",,30.2913058,-97.7074162
REQ15-001925,MANOR RD / ALEXANDER AVE,,TRAFFIC,UNDER EVALUATION,IN PROGRESS,None Identified,2,0,DEC,2018,2810,,MANOR RD,2200,,ALEXANDER AVE,TVL17-004195,"(30.2856925, -97.710204)",,30.2856925,-97.710204
REQ15-001950,DAVIS LN / ESCABOSA DR,,PHB,UNDER EVALUATION,IN PROGRESS,None Identified,92,320,DEC,2017,2208,,DAVIS LN,8601,,ESCABOSA DR,PVL17-001990,"(30.187453, -97.819559)",,30.187453,-97.819559
REQ15-001955,51ST ST / BENNETT AVE,,PHB,UNDER EVALUATION,IN PROGRESS,None Identified,36,410,DEC,2017,900,E,51ST ST,5100,,BENNETT AVE,PVL17-001985,"(30.3111865, -97.7133973)",,30.3111865,-97.7133973
REQ13-002155,BURLESON RD / DIME CIR,,PHB,UNDER EVALUATION,IN PROGRESS,None Identified,24,420,DEC,2017,6500,,BURLESON RD,3719,,DIME CIR,PVL17-001905,"(30.2033142, -97.71224)",,30.2033142,-97.71224
REQ14-000400,DAVIS LN / CAMERON LOOP,,TRAFFIC,UNDER EVALUATION,COMPLETED,None Identified,60,35,JUL,2014,3300,,DAVIS LN,8701,,CAMERON LOOP,TVL14-000710,"(30.1929742, -97.8375718)",,30.1929742,-97.8375718
REQ14-000400,DAVIS LN / CAMERON LOOP,,TRAFFIC,UNDER EVALUATION,IN PROGRESS,None Identified,154,5,DEC,2017,3300,,DAVIS LN,8701,,CAMERON LOOP,TVL17-003820,"(30.1929742, -97.8375718)",,30.1929742,-97.8375718
REQ14-000405,11700 BLK N LAMAR BLVD,,TRAFFIC,UNDER EVALUATION,COMPLETED,None Identified,63,26,JUL,2014,11700,N,LAMAR BLVD,0,,,TVL14-000705,"(30.3877257, -97.6841092)",,30.3877257,-97.6841092
REQ14-000405,11700 BLK N LAMAR BLVD,,TRAFFIC,UNDER EVALUATION,IN PROGRESS,None Identified,142,27,DEC,2017,11700,N,LAMAR BLVD,0,,,TVL17-003815,"(30.3877257, -97.6841092)",,30.3877257,-97.6841092
REQ14-000410,THAXTON RD / RUNNING WATER DR,,TRAFFIC,UNDER EVALUATION,IN PROGRESS,None Identified,150,11,DEC,2017,8000,,THAXTON RD,8013,,RUNNING WATER DR,TVL17-003810,"(30.1576252, -97.74201495)",,30.1576252,-97.74201495
REQ14-000420,CEDAR BEND DR / TOMANET TRL,,TRAFFIC,UNDER EVALUATION,IN PROGRESS,None Identified,51,137,DEC,2017,2410,,CEDAR BEND DR,12200,,TOMANET TRL,TVL17-003805,"(30.4132274, -97.704645)",,30.4132274,-97.704645
REQ16-001510,WILLIAM CANNON DR / MEADOW LAKE BLVD,,TRAFFIC,DESIGN,COMPLETED,2016,4,60,,,4716,E,WILLIAM CANNON DR,6605,,MEADOW LAKE BLVD,TVL16-000250,"(30.1809502, -97.75025496)",,30.1809502,-97.75025496
REQ14-001515,RED RIVER ST / PARK BLVD (Hancock Center),Hancock Center,PHB,TURNED_ON,COMPLETED,2016,12,530,JUL,2014,4200,,RED RIVER ST,800,,PARK BLVD,PVL14-000135,"(30.3014622, -97.7215453)",,30.3014622,-97.7215453
REQ14-001520,MANCHACA RD / INVERNESS BLVD,,PHB,TURNED_ON,COMPLETED,2016,8,560,JUL,2014,5300,,MANCHACA RD,1701,,INVERNESS BLVD,PVL14-000690,"(30.21783, -97.79596)",,30.21783,-97.79596
REQ14-001525,LAMAR BLVD / COOPER DR,,PHB,RECOMMENDED - NO FUNDING,COMPLETED,None Identified,9,550,JUL,2014,9200,N,LAMAR BLVD,707,,COOPER DR,PVL14-000700,"(30.3611334, -97.6981222)",This portion of N. Lamar under TxDOT control.  Working with TxDOT on median and lane modifications in conjunction with a signal.,30.3611334,-97.6981222
REQ14-002010,1137 BLK AIRPORT BLVD,,PHB,RECOMMENDED,COMPLETED,None Identified,3,600,JUL,2014,1137,,AIRPORT BLVD,0,,,PVL14-000665,"(30.27254, -97.697583)",,30.27254,-97.697583
REQ15-000530,CONGRESS AVE / DITTMAR RD,,TRAFFIC,STUDY,COMPLETED,None Identified,10,191,MAY,2015,7403,S,CONGRESS AVE,100,E,DITTMAR RD,TVL15-000580,"(30.1834011, -97.7819824)",,30.1834011,-97.7819824
REQ15-000535,6TH ST / WALLER ST,,TRAFFIC,NOT RECOMMENDED,COMPLETED,None Identified,2,314,MAY,2015,1100,E,6TH ST,600,,WALLER ST,TVL15-000575,"(30.2644081, -97.7305374)",All-way stop installed.,30.2644081,-97.7305374
REQ15-000540,AVERY RANCH BLVD / NORTH CANOA HILLS TRL,,TRAFFIC,UNDER EVALUATION,COMPLETED,None Identified,59,110,DEC,2016,14400,,AVERY RANCH BLVD,10700,,NORTH CANOA HILLS TRL,TVL16-002560,"(30.4967387, -97.7817699)",,30.4967387,-97.7817699
REQ16-002095,HOWARD LN / HOWARD LN (CMTA Howard Ln Rail Station - East Driveway),CMTA Howard Ln Rail Station - East Driveway,PHB,UNDER EVALUATION,IN PROGRESS,None Identified,35,414,DEC,2017,3800,W,HOWARD LN,3701,W,HOWARD LN,PVL17-002080,"(30.4407215, -97.7002716)",,30.4407215,-97.7002716
REQ16-002110,DUVAL RD / WHISPERING VALLEY DR,,PHB,UNDER EVALUATION,IN PROGRESS,None Identified,95,315,DEC,2017,4400,,DUVAL RD,4400,,WHISPERING VALLEY DR,PVL17-002075,"(30.4125099, -97.7315926)",,30.4125099,-97.7315926
REQ16-002130,DUVAL RD / SANTA CRUZ DR,,PHB,UNDER EVALUATION,IN PROGRESS,None Identified,90,325,DEC,2017,4416,,DUVAL RD,11706,,SANTA CRUZ DR,PVL17-002365,"(30.4131276, -97.7328469)",,30.4131276,-97.7328469
REQ16-002140,PLEASANT VALLEY RD / SHERINGHAM DR (Riverside Apartments),Riverside Apartments,PHB,DESIGN,IN PROGRESS,TAP Grant,,549,DEC,2016,2100,S,PLEASANT VALLEY RD,2500,,SHERINGHAM DR,PVL16-001290,"(30.231272, -97.725366)",,30.231272,-97.725366
REQ16-002205,DAVIS LN / CORRAN FERRY DR,,TRAFFIC,UNDER EVALUATION,IN PROGRESS,None Identified,86,85,DEC,2017,4311,,DAVIS LN,8901,,CORRAN FERRY DR,TVL17-004065,"(30.199637, -97.854105)",,30.199637,-97.854105
17-002510,ED BLUESTEIN BLVD / SMITH RD,,TRAFFIC,RECENTLY RECEIVED,IN PROGRESS,None Identified,136,40,DEC,2017,1727,,ED BLUESTEIN BLVD,1914,,SMITH RD,TVL17-003395,"(30.259279, -97.675271)",US 183 is a TxDOT controlled roadway.  TxDOT does not consider installing a PHB on a roadway with a speed limit above 40 MPH.  The speed limit on US 183 is 55 MPH.,30.259279,-97.675271
17-002515,1ST ST / ORLAND BLVD,,TRAFFIC,RECENTLY RECEIVED,IN PROGRESS,None Identified,143,25,DEC,2017,4531,S,1ST ST,601,,ORLAND BLVD,TVL17-003400,"(30.216085, -97.775996)",,30.216085,-97.775996
17-002530,MARTIN LUTHER KING JR BLVD / WEST AVE,,PHB,RECENTLY RECEIVED,IN PROGRESS,None Identified,31,415,DEC,2017,800,W,MARTIN LUTHER KING JR BLVD,1800,,WEST AVE,PVL17-001760,"(30.28289, -97.745935)",,30.28289,-97.745935
REQ15-000765,KOENIG LN / SUNSHINE DR,,TRAFFIC,NOT RECOMMENDED,COMPLETED,None Identified,9,230,DEC,2015,1000,W,KOENIG LN,5800,,SUNSHINE DR,TVL15-000345,"(30.3285501, -97.7275971)",No criteria warranting a signal were met.,30.3285501,-97.7275971
REQ16-001030,RUTHERFORD LN / CENTRE CREEK DR,,TRAFFIC,UNDER EVALUATION,IN PROGRESS,None Identified,122,60,DEC,2017,1500,,RUTHERFORD LN,1600,,CENTRE CREEK DR,TVL17-004075,"(30.335207, -97.68051979)",,30.335207,-97.68051979
REQ16-001040,PARMER LN / LIMERICK AVE,,TRAFFIC,UNDER EVALUATION,COMPLETED,None Identified,93,75,DEC,2016,2201,W,PARMER LN,12406,,LIMERICK AVE,TVL16-000070,"(30.4169865, -97.69822863)",,30.4169865,-97.69822863
REQ16-001780,1500 BLK RED RIVER ST (Frank Erwin Center (South)),Frank Erwin Center (South),PHB,TURNED_ON,COMPLETED,Funded,12,0,,,1500,,RED RIVER ST,0,,,PVL16-000930,"(30.277128, -97.733251)",,30.277128,-97.733251
REQ15-001800,FREIDRICH LN / DIRECTORS BLVD,,PHB,UNDER EVALUATION,IN PROGRESS,None Identified,8,450,DEC,2017,4100,,FREIDRICH LN,1800,,DIRECTORS BLVD,PVL17-001890,"(30.2122069, -97.7482662)",,30.2122069,-97.7482662
REQ15-001805,RUTLAND DR / RUTLAND VILLAGE EAST,,PHB,UNDER EVALUATION,IN PROGRESS,None Identified,73,356,DEC,2017,1800,,RUTLAND DR,10000,,RUTLAND VILLAGE EAST,PVL17-002110,"(30.3778344, -97.7102921)",,30.3778344,-97.7102921
REQ15-001810,LAMAR BLVD / WESTFOREST DR,,PHB,NOT RECOMMENDED,COMPLETED,None Identified,4,509,DEC,2015,2900,S,LAMAR BLVD,2301,,WESTFOREST DR,PVL15-000960,"(30.2424545, -97.78398344)",Being submitted for consideration in Bond improvements.,30.2424545,-97.78398344
REQ15-001820,800 BLK RUTLAND DR (HEB),HEB,PHB,TURNED_ON,COMPLETED,Safety,1,520,MAY,2015,800,,RUTLAND DR,0,,,PVL15-000925,"(30.3654561, -97.697222)",Turned on: 1/9/2017.,30.3654561,-97.697222
REQ16-001040,PARMER LN / LIMERICK AVE,,TRAFFIC,UNDER EVALUATION,IN PROGRESS,None Identified,105,75,DEC,2017,2201,W,PARMER LN,12406,,LIMERICK AVE,TVL17-004070,"(30.4169865, -97.69822863)",,30.4169865,-97.69822863
REQ16-001045,LAMAR BLVD / 47TH ST (Triangle / State Offices),Triangle / State Offices,PHB,TURNED_ON,COMPLETED,Funded,2,571,,,4601,N,LAMAR BLVD,800,W,47TH ST,PVL16-000005,"(30.31604, -97.7341919)",,30.31604,-97.7341919
REQ16-001060,600 BLK BARTON SPRINGS RD (Town Lake Center),Town Lake Center,PHB,TURNED_ON,COMPLETED,Funded,4,495,,,600,,BARTON SPRINGS RD,0,,,PVL16-000030,"(30.25894, -97.751935)",,30.25894,-97.751935
REQ14-001105,PLEASANT VALLEY RD / VILLAGE SQUARE DR,,PHB,TURNED_ON,COMPLETED,1/4 Cent,6,440,DEC,2014,5800,S,PLEASANT VALLEY RD,4901,,VILLAGE SQUARE DR,PVL14-000740,"(30.1886943, -97.7455575)","Turned on on 8/22/2017
Mendez MS",30.1886943,-97.7455575
REQ14-001120,CONGRESS AVE / ALPINE RD,,PHB,DESIGN,COMPLETED,TAP Grant,15,510,JUL,2014,3600,S,CONGRESS AVE,100,E,ALPINE RD,PVL14-000155,"(30.2271775, -97.7616501)",Recommended as a result of the study at Congress & Krebs.,30.2271775,-97.7616501
REQ16-001200,PINNACLE RD / DUSKY THRUSH TRL,,PHB,NOT RECOMMENDED,COMPLETED,1/4 Cent,11,50,,,3321,,PINNACLE RD,1313,,DUSKY THRUSH TRL,PVL16-001180,"(30.269568, -97.805226)","Traffic Eng. determined that due to the proximity to the signal on Walsh Tarlton, a PHB is not appropriate at this location.",30.269568,-97.805226
REQ14-001305,WILLIAM CANNON DR / MEADOW LAKE BLVD,,PHB,INELIGIBLE,COMPLETED,None Identified,36,408,DEC,2016,4716,E,WILLIAM CANNON DR,6605,,MEADOW LAKE BLVD,PVL16-000300,"(30.1809502, -97.75025496)",Traffic signal to be installed at this location.,30.1809502,-97.75025496
REQ14-001320,7TH ST / SAN MARCOS ST,,PHB,UNDER EVALUATION,IN PROGRESS,None Identified,31,415,DEC,2017,922,E,7TH ST,700,,SAN MARCOS ST,PVL17-002220,"(30.2660183, -97.7321093)",,30.2660183,-97.7321093
REQ14-001325,MANCHACA RD / SEDGEMOOR TRL,,PHB,UNDER EVALUATION,IN PROGRESS,None Identified,49,398,DEC,2017,9202,,MANCHACA RD,9201,,SEDGEMOOR TRL,PVL17-002215,"(30.1799061, -97.8201123)",,30.1799061,-97.8201123
REQ14-001335,MANCHACA RD / REDWATER DR,,PHB,UNDER EVALUATION,IN PROGRESS,None Identified,47,400,DEC,2017,10000,,MANCHACA RD,1801,,REDWATER DR,PVL17-002210,"(30.1680241, -97.82621)",,30.1680241,-97.82621
REQ15-000585,DUVAL RD / WHISPERING VALLEY DR,,TRAFFIC,UNDER EVALUATION,IN PROGRESS,None Identified,32,160,DEC,2017,4400,,DUVAL RD,4400,,WHISPERING VALLEY DR,TVL17-003530,"(30.4125099, -97.7315926)",,30.4125099,-97.7315926
REQ14-001385,ST JOHNS AVE / BETHUNE AVE,,PHB,UNDER EVALUATION,IN PROGRESS,None Identified,72,357,DEC,2017,1000,E,ST JOHNS AVE,7200,,BETHUNE AVE,PVL17-002005,"(30.3301126, -97.6982888)",,30.3301126,-97.6982888
REQ14-001390,BARTON SPRINGS RD / STRATFORD DR,,TRAFFIC,TURNED_ON,COMPLETED,2016,4,300,JUL,2014,2200,,BARTON SPRINGS RD,2207,,STRATFORD DR,TVL14-000640,"(30.2671709, -97.77088083)",,30.2671709,-97.77088083
REQ14-001395,12208 BLK TECHNOLOGY BLVD,,PHB,UNDER EVALUATION,IN PROGRESS,None Identified,74,355,DEC,2017,12208,,TECHNOLOGY BLVD,0,,,PVL17-001995,"(30.43525, -97.75964)",,30.43525,-97.75964
REQ14-001405,LOYOLA LN / SANDSHOF DR,,PHB,UNDER EVALUATION,IN PROGRESS,None Identified,83,338,DEC,2017,6506,,LOYOLA LN,6700,,SANDSHOF DR,PVL17-001925,"(30.2990208, -97.64558941)",,30.2990208,-97.64558941
REQ14-001410,MANCHACA RD / CIMARRON TRL,,PHB,UNDER EVALUATION,IN PROGRESS,None Identified,80,342,DEC,2017,4500,,MANCHACA RD,2001,,CIMARRON TRL,PVL17-002025,"(30.2270336, -97.79016423)",,30.2270336,-97.79016423
REQ14-000290,OLTORF ST / THORNTON RD,,TRAFFIC,UNDER EVALUATION,COMPLETED,None Identified,51,85,JUL,2014,1400,W,OLTORF ST,2101,,THORNTON RD,TVL14-000820,"(30.2465545, -97.7692612)",,30.2465545,-97.7692612
REQ15-000775,LAKE AUSTIN BLVD / HEARN ST,,TRAFFIC,UNDER EVALUATION,IN PROGRESS,None Identified,52,135,DEC,2017,2500,,LAKE AUSTIN BLVD,500,,HEARN ST,TVL17-003700,"(30.278539, -97.773179)",,30.278539,-97.773179
REQ15-000780,MC NEIL DR / AVERY ISLAND AVE,,TRAFFIC,UNDER EVALUATION,COMPLETED,None Identified,19,170,DEC,2016,6411,,MC NEIL DR,6411,,AVERY ISLAND AVE,TVL16-003235,"(30.4400979, -97.7524616)",,30.4400979,-97.7524616
REQ15-000780,MC NEIL DR / AVERY ISLAND AVE,,TRAFFIC,UNDER EVALUATION,COMPLETED,None Identified,16,170,DEC,2015,6411,,MC NEIL DR,6411,,AVERY ISLAND AVE,TVL15-000330,"(30.4400979, -97.7524616)",,30.4400979,-97.7524616
REQ16-001745,CONGRESS AVE / LA VISTA ST (St. Edwards),St. Edwards,PHB,TURNED_ON,COMPLETED,Funded,12,0,,,3000,S,CONGRESS AVE,101,,LA VISTA ST,PVL16-000895,"(30.2325363, -97.7584152)",,30.2325363,-97.7584152
REQ15-001965,MANCHACA RD / BERKETT DR,,PHB,UNDER EVALUATION,IN PROGRESS,None Identified,89,328,DEC,2017,6200,,MANCHACA RD,2001,,BERKETT DR,PVL17-002030,"(30.2105206, -97.8036314)",,30.2105206,-97.8036314
REQ15-001970,MANCHACA RD / ST ALBANS BLVD,,PHB,UNDER EVALUATION,IN PROGRESS,None Identified,107,288,DEC,2017,5200,,MANCHACA RD,1701,,ST ALBANS BLVD,PVL17-002040,"(30.2185202, -97.7954446)",,30.2185202,-97.7954446
REQ14-001975,AIRPORT BLVD / PARKWOOD RD,,TRAFFIC,STUDY,IN PROGRESS,None Identified,32,160,DEC,2017,4401,,AIRPORT BLVD,4400,,PARKWOOD RD,TVL17-003210,"(30.3004634, -97.7127191)",,30.3004634,-97.7127191
REQ16-001990,DUVAL RD / ANGUS RD,,PHB,UNDER EVALUATION,IN PROGRESS,None Identified,94,316,DEC,2017,5217,,DUVAL RD,11700,,ANGUS RD,PVL17-002065,"(30.4175235, -97.7421496)",,30.4175235,-97.7421496
REQ16-000815,MANCHACA RD / CROWNSPOINT DR,,TRAFFIC,UNDER EVALUATION,COMPLETED,None Identified,45,139,DEC,2016,9429,,MANCHACA RD,2001,,CROWNSPOINT DR,TVL16-003285,"(30.1776619, -97.8215442)",,30.1776619,-97.8215442
REQ16-000815,MANCHACA RD / CROWNSPOINT DR,,TRAFFIC,UNDER EVALUATION,COMPLETED,None Identified,11,150,MAY,2016,9429,,MANCHACA RD,2001,,CROWNSPOINT DR,TVL16-000295,"(30.1776619, -97.8215442)",,30.1776619,-97.8215442
REQ14-001460,ENFIELD RD / LORRAIN ST,,PHB,UNDER EVALUATION,IN PROGRESS,None Identified,115,260,DEC,2017,1400,,ENFIELD RD,1500,,LORRAIN ST,PVL17-001950,"(30.2811903, -97.754955)",,30.2811903,-97.754955
REQ14-001465,WEST GATE BLVD / RANCH RD,,PHB,UNDER EVALUATION,IN PROGRESS,None Identified,109,276,DEC,2017,7914,,WEST GATE BLVD,8005,,RANCH RD,PVL17-001945,"(30.1986198, -97.8273468)",,30.1986198,-97.8273468
REQ16-002215,24TH ST / WINDSOR RD,,TRAFFIC,UNDER EVALUATION,IN PROGRESS,None Identified,19,180,DEC,2017,1500,W,24TH ST,2310,,WINDSOR RD,TVL17-004060,"(30.289, -97.756)",,30.289,-97.756
REQ16-002220,KINNEY AVE / TREADWELL ST,,TRAFFIC,UNDER EVALUATION,COMPLETED,None Identified,126,10,DEC,2016,900,,KINNEY AVE,1513,,TREADWELL ST,TVL16-001115,"(30.257785, -97.76476)",,30.257785,-97.76476
REQ16-002225,ANDERSON MILL RD / TATERWOOD DR,,TRAFFIC,UNDER EVALUATION,IN PROGRESS,None Identified,59,115,DEC,2017,10617,,ANDERSON MILL RD,11504,,TATERWOOD DR,TVL17-004055,"(30.447, -97.811)",,30.447,-97.811
REQ16-002305,STASSNEY LN / STASSNEY LN (Mira Dr.),Mira Dr.,TRAFFIC,STUDY,COMPLETED,None Identified,4,261,DEC,2016,500,E,STASSNEY LN,501,E,STASSNEY LN,TVL16-000040,"(30.200719, -97.768206)",@ Mira Drive,30.200719,-97.768206
REQ16-002310,WILLIAM CANNON DR / DEATONHILL DR,,TRAFFIC,STUDY,COMPLETED,None Identified,6,254,DEC,2016,2900,W,WILLIAM CANNON DR,6715,,DEATONHILL DR,TVL16-000045,"(30.208081, -97.817974)",,30.208081,-97.817974
REQ16-002315,NORTH LAKE CREEK PKWY / NORTH LAKE CREEK PKWY,,PHB,UNDER EVALUATION,IN PROGRESS,None Identified,95,315,DEC,2017,9823,,NORTH LAKE CREEK PKWY,9830,,NORTH LAKE CREEK PKWY,PVL17-002320,"(30.472708, -97.791946)",,30.472708,-97.791946
REQ16-002320,9200 BLK BURNET RD,,PHB,UNDER EVALUATION,IN PROGRESS,None Identified,36,410,DEC,2017,9200,,BURNET RD,0,,,PVL17-002290,"(30.375892, -97.725794)",This portion of Burnet Rd. is under TxDOT authority.,30.375892,-97.725794
REQ16-000915,US 290 HWY / OLD BEE CAVES RD,,TRAFFIC,UNDER EVALUATION,COMPLETED,None Identified,19,170,DEC,2016,6836,W,US 290 HWY,6701,,OLD BEE CAVES RD,TVL16-003275,"(30.2339807, -97.8712305)",,30.2339807,-97.8712305
REQ14-001530,CAMINO LA COSTA  / CALIDAD DR,,PHB,TURNED_ON,COMPLETED,2016,1,521,DEC,2014,1016,,CAMINO LA COSTA,6300,,CALIDAD DR,PVL14-000730,"(30.3239766, -97.6979362)",Turn on 12/7/2016,30.3239766,-97.6979362
REQ14-001535,LAMAR BLVD / POWELL LN,,TRAFFIC,RECOMMENDED - NO FUNDING,COMPLETED,None Identified,3,310,DEC,2014,8200,N,LAMAR BLVD,100,W,POWELL LN,TVL14-000670,"(30.3508148, -97.70916083)",,30.3508148,-97.70916083
REQ15-001575,FM 2222 RD / MOUNT BONNELL RD,,TRAFFIC,TURNED_ON,COMPLETED,Safety,6,270,MAY,2015,4600,,FM 2222 RD,5600,,MOUNT BONNELL RD,TVL15-000900,"(30.341, -97.779)",,30.341,-97.779
REQ16-001725,RIATA TRACE PKWY / TAPADERA TRACE LN,,PHB,TURNED_ON,COMPLETED,Funded,12,0,,,12404,,RIATA TRACE PKWY,5600,,TAPADERA TRACE LN,PVL16-000875,"(30.4294128, -97.7411652)",,30.4294128,-97.7411652
REQ16-001740,1500 BLK S PLEASANT VALLEY RD (HEB),HEB,PHB,TURNED_ON,COMPLETED,Bond,12,0,,,1500,S,PLEASANT VALLEY RD,0,,,PVL16-000890,"(30.2357006, -97.7215195)",,30.2357006,-97.7215195
REQ14-002015,MANCHACA RD / LARCHMONT DR,,PHB,DESIGN,COMPLETED,TAP Grant,4,598,JUL,2014,3400,,MANCHACA RD,1907,,LARCHMONT DR,PVL14-000670,"(30.238391, -97.7829575)",,30.238391,-97.7829575
REQ16-002165,MANOR RD / STAFFORD ST,,PHB,UNDER EVALUATION,IN PROGRESS,None Identified,44,402,DEC,2017,2400,,MANOR RD,2200,,STAFFORD ST,PVL17-002345,"(30.2848949, -97.71545075)",,30.2848949,-97.71545075
REQ16-002175,45TH ST / TRIANGLE AVE,,PHB,UNDER EVALUATION,IN PROGRESS,None Identified,43,405,DEC,2017,600,W,45TH ST,4500,,TRIANGLE AVE,PVL17-002340,"(30.3122215, -97.73534791)",,30.3122215,-97.73534791
17-002585,WEST GATE BLVD / BRYONHALL DR,,TRAFFIC,RECENTLY RECEIVED,IN PROGRESS,None Identified,154,5,DEC,2017,7008,,WEST GATE BLVD,2701,,BRYONHALL DR,TVL17-003425,"(30.205029, -97.816522)",,30.205029,-97.816522
